stop_id,stop_code,stop_name,stop_desc,stop_lat,stop_lon,zone_id,stop_url,location_type,parent_station
1,7014,SJ CNTY HOSPITAL,,37.886477,-121.281061,,,,
7,3073,EL DORADO ST & HOSPITAL RD FS/NB,,37.885836,-121.276424,,,,
8,3074,EL DORADO & FRENCH CAMP NS/NB,EL DORADO ST & FRENCH CAMP RD,37.889235,-121.276482,,,,
9,3075,EL DORADO @ 5544 EL DORADO MB/NB,EL DORADO ST & 5544 EL DORADO ST,37.897444,-121.275762,,,,
10,3076,EL DORADO @ WESTERN LUMBER MB/NB,EL DORADO ST & WESTERN LUMBER,37.905215,-121.275695,,,,
11,3077,CLAYTON & HARVEY NS/WB,CLAYTON AVE & HARVEY AVE,37.910934,-121.277408,,,,
12,7026,CLAYTON & ODELL NS WB,,37.910184,-121.280175,,,,
15,3079,DOWNING & MOURFIELD FS/EB,DOWNING AVE & MOURFIELD AVE,37.913895,-121.284046,,,,
18,3080,ODELL & HORTON FS/NB,ODELL AVE & HORTON AVE,37.921202,-121.284727,,,,
21,3082,MOSSWOOD & EL DORADO NS/NB,MOSSWOOD AVE & EL DORADO ST,37.924531,-121.281111,,,,
22,3083,EL DORADO & NINTH ST FS/NB,EL DORADO ST & NINTH ST,37.927002,-121.281973,,,,
23,3119,8TH & SAN JOAQUIN FS/WB,8TH ST & SAN JOAQUIN ST,37.929287,-121.280584,,,,
24,3085,SAN JOAQUIN & 6TH NS/NB,SAN JOAQUIN ST & 6TH ST,37.93182,-121.281332,,,,
25,3086,SAN JOAQUIN & 4TH FS/ NB,SAN JOAQUIN ST & 4TH ST,37.934399,-121.282034,,,,
26,3087,SAN JOAQUIN & 2ND NS/NB,SAN JOAQUIN ST & 2ND ST,37.936825,-121.282701,,,,
27,7027,SAN JOAQUIN ST & CLAY ST FS NB,,37.940522,-121.283651,,,,
29,3088,SAN JOAQUIN & ANDERSON NS/NB,SAN JOAQUIN ST & ANDERSON ST,37.943231,-121.284415,,,,
31,3090,SAN JOAQUIN & HAZELTON FS/NB,SAN JOAQUIN ST & HAZELTON AVE,37.947255,-121.285532,,,,
54,3091,ALVARADO & ALPINE FS/NB,ALVARADO AVE & ALPINE AVE,37.983817,-121.28964,,,,
55,3092,ALVARADO & FULTON NS/NB,ALVARADO AVE & FULTON ST,37.985485,-121.290296,,,,
56,3093,FULTON @ 517 FULTON MB/WB,FULTON ST & 517 FULTON,37.984708,-121.294158,,,,
57,3094,FULTON & SUTTER NS/WB,FULTON ST & SUTTER ST,37.984109,-121.296571,,,,
59,3095,ESSEX & SUTTER FS/WB,ESSEC ST & SUTTER ST,37.988096,-121.298378,,,,
60,7028,ESSEX & EL DORADO NS WB,ESSEX ST & EL DORADO ST,37.987176,-121.302102,,,,
62,3096,JAMESTOWN & SHELLEY FS/EB,JAMESTOWN ST & SHELLEY CT,37.993751,-121.303727,,,,
64,3098,KENTFIELD & BIANCHI NS/SB,KENTFIELD RD & BIANCHI RD,37.992878,-121.300554,,,,
65,3099,CLAREMONT & BIANCHI FS/NB,CLAREMONT AVE & BIANCHI RD,37.991796,-121.306094,,,,
66,3100,CLAREMONT & GOLD RUN  NS/NB,CLAREMONT AVE & GOLD RUN PL,37.992732,-121.307244,,,,
67,3101,CLAREMONT & PARDEE NS/NB,CLAREMONT AVE & PARDEE LN,37.993544,-121.308164,,,,
73,3448,PACIFIC  AV & LONGVIEW AV FS/SB,PACIFIC AVE & LONGVIEW AVE,38.003398,-121.3176,,,,
74,3840,PACIFIC & SWAIN FS NB,PACIFIC AVE & SWAIN RD,38.004656,-121.317946,,,,
77,7067,PACIFIC & BENJAMIN HOLT FS SB,PACIFIC AVE & BENJAMIN HOLT DR,38.010936,-121.320665,,,,
78,3842,PACIFIC & LINCOLN NS NB,PACIFIC AVE & LINCOLN RD,38.013746,-121.321587,,,,
79,3733,THORNTON & HAMMER FS NB,THORNTON RD & HAMMER LN,38.021229,-121.325263,,,,
83,3463,PONCE DE LEON & LOWER SAC NS/WB,PONCE DE LEON & LOWER SACRAMENTO RD,38.030117,-121.322649,,,,
84,3334,YOKUTS & EL DORADO FS/WB,YOKUTS AVE & EL DORADO ST,37.998541,-121.306904,,,,
86,3471,EL DORADO @ ST. MARYS HIGH MB/NB,EL DORADO ST & ST. MARYS HS,38.004706,-121.307483,,,,
91,3456,INGLEWOOD & BENJAMIN HOLT NS/NB,INGLEWOOD AVE & BENJAMIN HOLT DR,38.011705,-121.317365,,,,
95,3459,EL DORADO & MISSION PARK NS/NB,EL DORADO ST & MISSION  PARK,38.019325,-121.315049,,,,
98,3461,EL DORADO ST & MARTINIQUE NS/NB,EL DORADO ST & MARTINIQUE CT,38.029059,-121.316219,,,,
99,3462,PONCE DE LEON  AV & ANTOINO FS/WB,PONCE DE LEON AVE & ANTONIO WY,38.030102,-121.318532,,,,
103,3466,PONCE DE LEON & STONEWOOD NS/WB,PONCE DE LEON & STONEWOOD DR,38.029588,-121.327318,,,,
111,3477,HICKOCK & PAWNEE FS/NB,HICKOCK DR & PAWNEE WY,38.038308,-121.335908,,,,
112,3478,HICKOCK & CHEYENNE NS/NB,HICKOCK DR & CHEYENNE WY,38.040093,-121.335013,,,,
118,3485,DAVIS RD & LARAMIE DR NS/SB,,38.038266,-121.331859,,,,
126,3488,EL DORADO & LOS FELIZ NS/SB,E DORADO ST & LOS FELIS AVE,38.032466,-121.317511,,,,
129,3490,EL DORADO & GLENCANNON FS/SB,EL DORADO ST & GLENCANNON ST,38.026266,-121.316286,,,,
132,7120,EL DORADO & MISSION PARK FS SB,EL DORADO ST & MISSION PARK,38.019397,-121.315222,,,,
133,3492,EL DORADO & LINCOLN FS/SB,EL DORADO ST & LINCOLN RD,38.016579,-121.312517,,,,
138,3455,INGLEWOOD AV & GLENDORA AV FS/NB,INGLEWOOD AVE & GLENDORA AVE,38.008797,-121.315868,,,,
141,3512,EL DORADO & SWAIN FS/SB,EL DORADO ST & SWAIN RD,38.007159,-121.308589,,,,
143,3470,YOKUTS AVE & EL DORADO ST NS/EB,,37.99863,-121.306202,,,,
150,3851,PACIFIC & WILLORA NS SB,PACIFIC AVE & WILLORA RD,38.015538,-121.322451,,,,
151,3823,PACIFIC & LINCOLN ROAD FS SB,PACIFIC AVE & LINCOLN RD,38.013692,-121.321771,,,,
152,7065,PACIFIC & BENJAMIN HOLT FS NB,PACIFIC AVE & BENJAMIN HOLT DR,38.011141,-121.320538,,,,
153,3884,PACIFIC & DOUGLAS FS SB,PACIFIC AVE & DOUGLAS RD,38.008161,-121.31957,,,,
155,3885,PACIFIC & SWAIN NS SB,PACIFIC AVE & SWAIN RD,38.004593,-121.318083,,,,
161,3104,EL DORADO & JAMESTOWN FS/SB,EL DROADO ST & JAMESTOWN ST,37.992885,-121.304577,,,,
166,3106,SUTTER & FULTON NS/SB,SUTTER ST & FULTON ST,37.984385,-121.29679,,,,
167,3107,FULTON @ 571 FULTON MB/EB,FULTON ST & 571 FULTON ST,37.984672,-121.294181,,,,
168,3108,FULTON & STANISLAUS FS/EB,FULTON ST & STANISLAUS ST,37.985163,-121.292308,,,,
169,3109,ALVARADO & OAK PARK MB/SB,ALVARADO AVE & OAK PARK,37.98462,-121.289997,,,,
170,3110,ALVARADO & ALPINE NS/SB,ALVARADO AVE & ALPINE AVE,37.98288,-121.289295,,,,
178,3111,CALIFORNIA & WALNUT FS/SB,CALIFORNIA ST & WALNUT ST,37.969991,-121.289018,,,,
191,3112,SAN JOAQUIN & LAFAYETTE NS/SB,SAN JOAQUINST & LAFAYETTE ST,37.950252,-121.286406,,,,
193,3113,SAN JOAQUIN & HAZELTON NS/SB,SAN JOAQUIN ST & HAZELTON AVE,37.947335,-121.285589,,,,
194,7029,SAN JOAQUIN ST & TAYLOR ST NS NB,,37.945078,-121.284922,,,,
195,3114,SAN JOAQUIN & ANDERSON NS/SB,SAN JOAQUIN ST & ANDERSON ST,37.943401,-121.284507,,,,
196,3115,SAN JOAQUIN & JACKSON NS/SB,SAN JOAQUIN ST & JACKSON ST,37.941393,-121.283955,,,,
197,7033,SAN JOAQUIN & CHARTER FS SB,SAN JOAQUIN ST & MLK BLVD,37.939282,-121.283386,,,,
198,3116,SAN JOAQUIN & 2ND NS/SB,SAN JOAQUIN ST & 2ND ST,37.936986,-121.282781,,,,
199,3117,SAN JOAQUIN & 4TH FS/SB,SAN JOAQUIN ST & 4TH ST,37.934327,-121.282057,,,,
200,3118,SAN JOAQUIN & 6TH NS/SB,SAN JOAQUIN ST & 6TH ST,37.931883,-121.281378,,,,
201,3120,EL DORADO & 9TH NS/SB,EL DORADO ST & 9TH ST,37.927073,-121.282042,,,,
202,3121,EL DORADO & MOSSWOOD NS/SB,EL DORADO ST & MOSSWOOD AVE,37.92462,-121.281054,,,,
203,3122,MOSSWOOD & COMMERCE FS/EB,MOSSWOOD AVE & COMMERCE ST,37.923977,-121.282902,,,,
204,3123,ODELL & MOSSWOOD FS/SB,ODELL AVE & MOSSWOOD AVE,37.923334,-121.285589,,,,
205,3124,ODELL & HORTON FS/SB,ODELL AVE & HORTON AVE,37.921113,-121.284704,,,,
206,3125,ODELL & IVY NS/SB,ODELL AVE & IVY AVE,37.917758,-121.283313,,,,
211,7034,CLAYTON & ODELL FS EB,CLAYTON AVE & ODELL AVE,37.910148,-121.280164,,,,
215,3130,EL DORADO & FRENCH CAMP NS/SB,EL DORADO ST & FRENCH CAMP RD,37.890859,-121.276333,,,,
216,3131,HOSPITAL RD & EL DORADO ST FS/WB,,37.885809,-121.276997,,,,
217,3869,CAROLYN WESTON & E.W.S. WOODS FS WB,CAROLYN WESTON BLVD & E.W.S. WOODS BLVD,37.911505,-121.304645,,,,
239,3855,CHURCH ST & SAN JOSE ST NS EB,,37.945151,-121.30398,,,,
243,7037,LINCOLN STREET & WEBER NS NB,LINCOLN ST & WEBER AVE,37.952319,-121.297827,,,,
255,3698,MARKET & AIRPORT  WAY FS EB,MARKET ST & AIRPORT WY,37.954395,-121.273747,,,,
257,3699,MARKET & DELLA NS EB,MARKET ST & DELLA ST,37.955262,-121.268726,,,,
259,3700,MAIN & LAUREL NS EB,MAIN ST & LAUREL ST,37.955387,-121.262441,,,,
260,3701,MAIN & SO COURT FS EB,MAIN ST & S. COURT ST,37.955236,-121.259707,,,,
261,3702,MAIN & MARSH NS EB,MAIN ST & MARSH ST,37.955102,-121.256766,,,,
267,3704,MAIN & GOLDEN GATE FS EB,MAIN ST & GOLDEN GATE AVE,37.954424,-121.244208,,,,
268,3705,MAIN & NETHERTON NS EB,MAIN ST & NETHERTON AVE,37.954317,-121.242243,,,,
269,3706,MAIN & ANTEROS FS EB,MAIN ST & ANTEROS AVE,37.954084,-121.237475,,,,
272,3707,ORO & HORNER NS NB,ORO AVE & HORNER AVE,37.957671,-121.235774,,,,
290,3708,ORO & WASHINGTON NS NB,ORO AVE & WASHINGTON ST,37.962355,-121.237657,,,,
293,3684,MAIN & NETHERTON NS WB,MAIN ST & NETHERTON AVE,37.954433,-121.242209,,,,
294,3685,MAIN & GOLDEN GATE NS WB,MAIN ST & GOLDEN GATE AVE,37.954549,-121.244483,,,,
297,7149,MAIN & FILBERT FS WB,MAIN ST & FILBERT ST,37.95487,-121.251883,,,,
299,3687,MAIN & E STREET  FS WB,"MAIN ST & ""E"" ST",37.955129,-121.256858,,,,
301,3689,MAIN & LAFAYETTE FS WB,MAIN ST & LAFAYETTE ST,37.955363,-121.2617,,,,
303,3690,MAIN & DELLA NS WB,MAIN ST & DELLA ST,37.955717,-121.268715,,,,
304,3691,MAIN & SIERRA NEVADA FS WB,MAIN ST & SIERRA NEVADA ST,37.955591,-121.272862,,,,
314,3861,WEBER  & TULEBURG AVE WB,WEBER AVE & TULEBURG LEVEE,37.952837,-121.295139,,,,
318,3863,CHURCH ST & SAN JOSE ST NS WB,,37.945223,-121.303658,,,,
319,3854,CHURCH & PERSHING FS EB,CHURCH ST & PERSHING AVE,37.944971,-121.30784,,,,
323,7248,LOS ANGELES & SONORA NS SB,,37.944406,-121.315077,,,,
329,7045,ALPINE & DELAWARE FS EB,ALPINE AVE & DELAWARE AVE,37.971621,-121.332884,,,,
349,3608,STANISLAUS & WEBER FS SB,STANISLAUS ST & WEBER AVE,37.954991,-121.282192,,,,
411,7042,COUNTRY CLUB & PERSHING FS WB,COUNTRY CLUB BLVD & PERSHING AVE,37.969418,-121.315379,,,,
423,7041,HARDING & PACIFIC FS WB,HARDING WY & PACIFIC AVE,37.966728,-121.298468,,,,
435,3339,WILSON & PARK (EASTLAND PLZ.) FS/NB,WILSON WY & PARK ST,37.962809,-121.273416,,,,
436,3340,WILSON WY & POPLAR ST NS/NB,,37.96446,-121.273865,,,,
437,3341,WILSON WY & ROOSEVELT ST NS/NB,,37.967172,-121.27459,,,,
439,7088,WILSON WY & HARDING WY FS NB,,37.971053,-121.275625,,,,
443,3345,FUNSTON AV & ORWOOD ST NS NB,FUNSTON AVE & ORWOOD ST,37.976638,-121.273547,,,,
445,3346,FUNSTON AV & SANGUINETTI LN NS/EB,FUNSTON AVE & SANGUINETTI LN,37.981359,-121.270882,,,,
452,3349,FILBERT ST & WATERLOO FS/SB,FLBERT ST & WATERLOO RD,37.976961,-121.261732,,,,
457,3696,FLORA & D STREET FS WB,"FLORA ST & ""D"" ST",37.966067,-121.264328,,,,
469,3351,GOLDEN GATE  & JOHN ST NS/NB,GOLDEN GATE AVE & JOHN ST,37.977167,-121.255319,,,,
471,3352,WATERLOO RD & SUNSET AV FS/WB,WATERLOO RD & SUNSET AVE,37.978969,-121.258894,,,,
482,3365,FUNSTON & ORWOOD NS/SB,FUNSTON AVE & ORWOOD ST,37.976745,-121.273535,,,,
483,3344,FUNSTON AV & BRADFORD ST FS/NB,FUNSTON AVE & BRADFORD ST,37.974363,-121.274419,,,,
484,3343,BRADFORD ST & WILSON WY FS/EB,,37.973899,-121.276247,,,,
486,7097,WILSON & HARDING FS SB,WILSON WY & HARDING WY,37.970598,-121.275556,,,,
487,3367,WILSON & ACACIA FS/SB,WILSON WY & ACACIA ST,37.965637,-121.27421,,,,
489,3368,WILSON & OAK NS/SB,WILSON WY & OAK ST,37.96189,-121.273186,,,,
492,3338,STANISLAUS & MINER NS/NB,STANISLAUS ST & MINER AVE,37.95699,-121.282721,,,,
512,7054,COUNTRY CLUB & PERSHING NS EB,COUNTRY CLUB BLVD & PERSHING AVE,37.969454,-121.315138,,,,
522,7128,8TH & B STREET FS EB,"8TH ST & ""B"" ST",37.933921,-121.255294,,,,
527,3546,AIRPORT & 2ND FS/NB,AIRPORT WY & 2ND ST,37.937479,-121.269044,,,,
536,3550,STANISLAUS & LAFAYETTE NS/NB,STANISLAUS ST & LAFAYETTE ST,37.951084,-121.281122,,,,
537,3551,STANISLAUS & MARKET NS/NB,STANISLAUS ST & MARKET ST,37.953037,-121.281639,,,,
538,3552,STANISLAUS & MAIN NS/NB,STANISLAUS ST & MAIN ST,37.95401,-121.281893,,,,
542,3555,EL DORADO & FREMONT FSNB,EL DORADO ST & FREMONT ST,37.957576,-121.291109,,,,
546,3558,EL DORADO & ACACIA FS/NB,EL DORADO ST & ACACIA ST,37.962643,-121.292433,,,,
549,3559,EL DORADO & WILLOW NS/NB,EL DORADO ST & WILLOW ST,37.966489,-121.293492,,,,
550,7130,EL DORADO & SPERRY FS NB,EL DORADO ST & SPERRY AVE,37.968264,-121.294056,,,,
553,3561,EL DORADO & ADAMS FS/NB,EL DORADO ST & ADAMS ST,37.973813,-121.296439,,,,
556,3563,EL DORADO & ALPINE FS/NB,EL DORADO ST & ALPINE AVE,37.980057,-121.299235,,,,
558,3564,EL DORADO & FULTON NS/NB,EL DORADO ST & FULTON ST,37.983295,-121.300582,,,,
560,3598,EL DORADO & CHURCHILL FS SB,EL DORADO ST & CHURCH ST,37.985838,-121.301664,,,,
562,3567,EL DORADO & SWAIN FS/NB,EL DORADO ST & SWAIN RD,38.007257,-121.308462,,,,
564,3569,EL DORADO & BENJAMIN HOLT NS NB,EL DORADO ST & BENJAMIN HOLT DR,38.011888,-121.308684,,,,
565,3570,EL DORADO & LINCOLN FS NB,EL DORADO ST & LINCOLN RD,38.016686,-121.312425,,,,
569,4031,HAMMER LN & LAN ARK DR FS WB,,38.020988,-121.309508,,,,
572,3574,KNICKERBOCKER & PALISADES FS EB,KNICKERBOCKER DR & PALISADES DR,38.023169,-121.298458,,,,
573,7131,KNICKERBOCKER & WEST LANE FS EB,KNICKERBOCKER DR & WEST LANE,38.024188,-121.294698,,,,
574,3576,BORDEAUX & MOULIN NS EB,BORDEAUX AVE & MOULIN CT,38.02402,-121.290788,,,,
575,3577,BORDEAUX & CHATEAU FS EB,BORDEAUX AVE & CHATEAU DR,38.024029,-121.288948,,,,
578,3579,BORDEAUX & BURGUNDY NS EB,BORDEAUX AVE & BURGUNDY DR,38.024236,-121.283601,,,,
579,3580,BURGUNDY & CHERBOURG NS NB,BURGUNDY DR & CHERBOURG WY,38.025503,-121.283337,,,,
580,7132,CHERBOURG & PYRENESS FS NB,CHERBOURG WY & PYRENESS AVE,38.02768,-121.285304,,,,
582,3581,CHERBOURG & SANDALWOOD NS NB,CHERBOURG WY & SANDALWOOD DR,38.032087,-121.285467,,,,
587,3589,WEST LANE @ CHRISTIAN CENTER NB,WEST LANE RD & CHRISTIAN CENTER,38.029862,-121.295323,,,,
589,7133,PROSPECTOR & TAMOSHANTER NS WB,PROSPECTOR DR & TAM O'SHANTER DR,38.032162,-121.300408,,,,
593,4030,HAMMER & TAM O`SHANTER FS WB,HAMMER LN & TAM O'SHANTER DR,38.020983,-121.300653,,,,
595,3572,IRIS & LAN ARK NS EB,IRIS AVE & LAN ARK DR,38.021925,-121.309601,,,,
599,3596,EL DORADO & BENJAMIN HOLT FS SB,EL DORADO ST & BENJAMIN HOLT DR,38.011861,-121.308845,,,,
604,3599,EL DORADO & FULTON FS SB,EL DORADO ST & FULTON ST,37.983278,-121.300617,,,,
606,3601,EL DORADO & NOBLE NS SB,EL DORADO ST & NOBLE ST,37.976105,-121.297704,,,,
607,3602,EL DORADO & CASTLE NS SB,EL DORADO ST & CASTLE ST,37.974205,-121.296726,,,,
610,7134,CENTER & HARDING FS SB,CENTER ST & HARDING WY,37.967264,-121.295113,,,,
613,3603,CENTER & ACACIA FS SB,CENTER ST & ACACIA ST,37.962358,-121.293777,,,,
614,3604,CENTER & FLORA,CENTER ST & FLORA ST,37.960466,-121.293236,,,,
618,3609,STANISLAUS & MARKET NS SB,STANISLAUS ST & MARKET ST,37.953064,-121.281674,,,,
619,3610,STANISLAUS & LAFAYETTE FS SB,STANISLAUS ST & LAFAYETTE ST,37.951066,-121.281145,,,,
622,3611,STANISLAUS & WORTH NS SB,STANISLAUS ST & WORTH ST,37.945142,-121.279499,,,,
627,3545,AIRPORT & 6TH NS/NB,AIRPORT WY & 6TH ST,37.93466,-121.267975,,,,
630,7135,RALPH & AIRPORT FS EB,RALPH AVE & AIRPORT WY,37.920153,-121.261747,,,,
632,3617,RALPH & ANNE NS EB,RALPH AVE & ANNE ST,37.921242,-121.257487,,,,
634,3619,B STREET & RALPH FS NB,"""B"" ST & RALPH AVE",37.923,-121.250952,,,,
639,3406,8TH ST & LAGUNA CIRCLE NS/EB,,37.926619,-121.306092,,,,
640,7104,8TH & ARGONAUT FS WB,8TH ST & ARGONAUT ST,37.926656,-121.302922,,,,
641,7015,MANTHEY & 8TH NS NB,MANTHEY RD & 8TH ST,37.926534,-121.296237,,,,
643,3134,8TH & HARRISON NS/EB,8T ST & HARRISON ST,37.92724,-121.291897,,,,
644,3135,LINCOLN STREET & 7TH FS/NB,LINCOLN ST & 7TH ST,37.928418,-121.290335,,,,
646,3136,LINCOLN STREET & KOHLER NS/NB,LINCOLN ST & KOHLER ST,37.931023,-121.291692,,,,
647,3137,LINCOLN STREET & 4TH FS/NB,LINCOLN ST & 4TH ST,37.932397,-121.292186,,,,
648,3138,LINCOLN STREET & FRENCH CAMP TPK NB,LINCOLN ST & FRENCH CAMP RD,37.934797,-121.293038,,,,
649,7035,LINCOLN STREET & CHARTER FS NB,LINCOLN ST & MLK BLVD,37.937643,-121.29382,,,,
650,3139,LINCOLN STREET & JACKSON FS/NB,LINCOLN ST & JACKSON ST,37.939543,-121.294327,,,,
681,3411,PACIFIC AV & ROBINHOOD DR NS/NB,PACIFIC AVE & ROBINHOOD DR,38.00057,-121.316263,,,,
682,3447,SWAIN RD & PACIFIC AV NS/EB,SWAIN RD & PACIFIC AVE,38.004531,-121.318152,,,,
683,3446,SWAIN RD & GETTYSBURG PL FS/EB,,38.003914,-121.320658,,,,
686,3474,GETTYSBURG & BENJAMIN HOLT NS/NB,GETTYSBURG & BENJAMIN HOLT DR,38.009979,-121.323918,,,,
692,7106,SWAIN & PERSHING FS WB,SWAIN RD & PERSHING AVE,38.002358,-121.327072,,,,
693,3767,PERSHING & BUCKINGHAM NS NB,PERSHING AVE & BUCKINGHAM WY,38.000065,-121.326104,,,,
716,3497,BENJAMIN HOLT & HARRISBURG FS/WB,BENJAMIN HOLT DR & HARRISBURG PL,38.007189,-121.334033,,,,
717,3498,BENJAMIN HOLT & ALEXANDRIA FS/WB,BENJAMIN HOLT DR & ALEXANDRIA PL,38.005713,-121.338757,,,,
718,3499,BENJAMIN HOLT & BELMONT PL FS/WB,BENJAMIN HOLT DR & BELMONT PL,38.005085,-121.343562,,,,
719,3500,BENJAMIN HOLT & PLYMOUTH FS/WB,BENJAMIN  HOLT DR & PLYMOUTH RD,38.004955,-121.350012,,,,
720,3501,GRIGSBY & BENJAMIN HOLT FS/SB,GRIGSBY PL & BENJAMIN HOLT DR,38.004721,-121.353,,,,
723,3502,SWAIN &  HALLECK NS/WB,SWAIN RD & HALLECK PL,38.000481,-121.355397,,,,
724,3503,CUMBERLAND & SWAIN FS/NB,CUMBERLAND DR & SWAIN RD,37.999712,-121.357926,,,,
725,3504,CUMBERLAND & S. MONITOR CIR NS/NB,CUMBERLAND DR & S. MONITOR CIR,38.000951,-121.359272,,,,
726,3505,CUMBERLAND & HARPERS FERRY FS/NB,CUMBERLAND DR & HARPERS FERRY,38.003099,-121.360839,,,,
729,3449,MILL SPRINGS & CUMBERLAND FS/ EB,MILL SPRINGS DR & CUMBERLAND DR,38.008326,-121.363031,,,,
733,3452,BENJAMIN HOLT & GRIGSBY NS/EB,BENJAMIN HOLT DR & GRIGSBY PL,38.004766,-121.353024,,,,
749,3789,MEADOW & PARKWOODS NS SB,MEADOW VE & PARKWOODS DR,38.016811,-121.341415,,,,
750,3790,MEADOW & ALEXANDRIA NS SB,MEADOW AVE & ALEXANDER PL,38.016107,-121.339217,,,,
751,3791,MEADOW & LARKSPUR NS SB,MEADOW AVE & LARKSPUR LN,38.016003,-121.336239,,,,
752,3792,MEADOW & BRENTWOOD NS SB,MEADOW AVE & BRENTWOOD DR,38.016023,-121.332226,,,,
753,3793,PERSHING & LINCOLN ROAD NS SB,PERSHING AVE & LINCOLN RD,38.013767,-121.329866,,,,
761,3412,SWAIN RD & PACIFIC AV FS/WB,SWAIN RD & PACIFIC AVE,38.004567,-121.318187,,,,
765,7073,ROBINHOOD & PERSHING FS EB,ROBINHOOD DR & PERSHING AVE,37.99813,-121.32509,,,,
777,7782,PACIFIC & SONOMA (LUCKY/PARK) NS SB,PACIFIC AVE & SONOMA,37.977655,-121.304888,,,,
783,7013,PACIFIC & ELM FS SB,PACIFIC AVE & ELM ST,37.96782,-121.298447,,,,
791,3605,CENTER & FREMONT NS SB,CENTER ST & FREMONT ST,37.957558,-121.292476,,,,
801,3155,LINCOLN STREET & JACKSON NS/SB,LINCOLN ST & JACKSON ST,37.939579,-121.294361,,,,
802,7039,LINCOLN STREET & CHARTER FS SB,LINCOLN ST & MLK BLVD,37.937438,-121.293797,,,,
803,3156,LINCOLN STREET & FRENCH CAMP FS/SB,LINCOLN ST & FRENCH CAMP RD,37.934672,-121.293038,,,,
805,3158,LINCOLN STREET & KOHLER NS/SB,LINCOLN ST & KOHLER ST,37.931095,-121.291749,,,,
807,3159,LINCOLN STREET & 8TH NS/SB,LINCOLN ST & 8TH ST,37.92766,-121.290117,,,,
808,3160,8TH & FRENCH CAMP NS/WB,8TH ST & FRENCH CAMP RD,37.927052,-121.292919,,,,
810,3161,LEVER & COLORADO NS/SB,LEVER BLVD & COLORADO AVE,37.92391,-121.298728,,,,
813,7040,FLINT & GEORGIA FS EB,FLINT AVE & GEORGIA AVE,37.921214,-121.301517,,,,
816,3164,CHICAGO & ALABAMA NS/EB,CHICAGO AVE & ALABAMA AVE,37.923688,-121.294513,,,,
819,3407,8TH ST & ARGONAUT ST FS/EB,,37.926629,-121.302818,,,,
820,3399,8TH & CAPITOLA CIRCLE ENT FS/WB,8TH ST & CAPITOLA CIR,37.926645,-121.307975,,,,
821,3400,DRY CREEK & DIABLO CREEK FS/SB,DRY CREEK WY & DIABLO CREEK DR,37.925859,-121.309008,,,,
854,3350,HARDING WY & RHODE ISLAND NS/EB,HARDING WY & RHODE ISLAND AVE,37.974329,-121.257548,,,,
875,3725,FREMONT & VAN BUREN NS WB,FREMONT ST & VAN BUREN ST,37.956646,-121.297589,,,,
880,7061,FREMONT ST & PERSHING AV FS EB,FREMONT ST & PERSHING AVE,37.954222,-121.312087,,,,
902,7072,FEATHER RIVER & MARCH LANE NS SB,FEATHER RIVER DR & MARCH LN,37.984454,-121.347559,,,,
911,4052,PERSHING & MARCO POLO FS SB,PERSHING AVE & MARCO POLO DR,37.992537,-121.32328,,,,
912,4051,PERSHING & VENETIAN FS SB,PERSHING AVE & VENETIAN DR,37.99614,-121.324663,,,,
927,3622,KERMIT LN & LONGVIEW AVE NS NB,,38.007866,-121.30222,,,,
928,3636,KERMIT & SWAIN FS SB,KERMIT LN & SWAIN RD,38.008705,-121.302565,,,,
930,3625,CORDOVA LN & KERMIT LN FS WB,,38.016235,-121.30364,,,,
931,3626,VILLA DR & CORDOVA LN FS NB,,38.016207,-121.306836,,,,
932,3627,VILLA & MURILLO NS NB,VILLA DR & MURILLO DR,38.017375,-121.307803,,,,
933,3631,VILLA DR & GOYA DR FS SB,,38.018356,-121.308448,,,,
934,3629,LOS MOLINAS & GOYA FS NB,LOS MOLINAS LN & GOYA DR,38.018401,-121.307091,,,,
935,7136,LOS MOLINAS & PRADO NS NB,LOS MOLINAS LN & PRADO WY,38.020302,-121.30707,,,,
938,7166,HAMMER & WEST LANE FS EB,HAMMER LN & WEST LANE,38.020834,-121.292362,,,,
940,3333,KENTFIELD & GATEWAY FS/NB,KENTFIELD RD & GATEWAY CT,37.996937,-121.302718,,,,
950,3309,TAM O'SHANTER @ THE PINES FS/NB,,38.014337,-121.298303,,,,
954,3313,HAMMERTOWN & MONTAUBAN FS/EB,,38.016544,-121.288887,,,,
956,3315,LORRAINE AVE & HAMMER LN NS/NB,LORRAINE & VILLAGE GREEN,38.020667,-121.283208,,,,
963,3312,HAMMERTOWN & WEST LANE FS/EB,HAMMERTOWN DR & WEST LANE,38.016533,-121.29413,,,,
964,7077,HAMMERTOWN  @ KAISER ENT FS WB,HAMMERTOWN  DR & KAISER ENTRANCE,38.016577,-121.297063,,,,
965,3310,TAM O'SHANTER & HAMMERTOWN NS/NB,,38.015924,-121.299224,,,,
971,7080,WEST LANE & MARCH LANE FS SB,WEST LANE & MARCH LN,38.001911,-121.290719,,,,
974,3330,BIANCHI & DORSET FS/WB,BIANCHI RD & DORSET ST,37.994271,-121.298152,,,,
976,3097,KENTFIELD & SURREY LANE NS/SB,KENTFIELD RD & SURREY LN,37.994323,-121.301348,,,,
979,7168,HAMMER & WEST LANE FS WB,HAMMER LN & WEST LANE,38.020976,-121.294995,,,,
982,3628,VILLA & GOYA NS NB,VILLA DR & GOYA DR,38.018329,-121.308413,,,,
983,3632,VILLA DR & CORDOVA LN NS SB,,38.016225,-121.306859,,,,
985,3635,KERMIT LN & KERMIT CT FS SB,,38.014727,-121.303593,,,,
986,3623,KERMIT & SWAIN FS NB,KERMIT LN & SWAIN RD,38.008767,-121.302542,,,,
1019,7167,HAMMER LN & LORRAINE AVE NS WB,,38.021078,-121.282725,,,,
1021,7137,KERMIT & BENJAMIN HOLT NS SB,KERMIT LN & BEN HOLT DR,38.01222,-121.303028,,,,
1029,3374,GRANT & 4TH FS/NB,GRANT ST & 4TH ST,37.935569,-121.275533,,,,
1031,3375,GRANT & 1ST FS/NB,GRANT ST & 1ST ST,37.939257,-121.276528,,,,
1033,7101,MLK BLVD & CALIFORNIA FS WB,MLK BLVD & CALIFORNIA ST,37.939895,-121.280864,,,,
1035,3377,CALIFORNIA & JEFFERSON FS/NB,CALIFORNIA ST & JEFFERSON ST,37.942741,-121.281566,,,,
1036,3378,CALIFORNIA & HAZELTON FS/NB,CALIFORNIA ST & HAZELTON AVE,37.947764,-121.282958,,,,
1038,3379,CALIFORNIA & LAFAYETTE FS/NB,CALIFORNIA ST & LAFAYETTE ST,37.950726,-121.283718,,,,
1052,3738,DON & WAUDMAN NS NB,DON AVE & WAUDMAN AVE,38.029923,-121.345479,,,,
1053,3739,DON & SHROPSHIRE FS NB,DON AVE & SHROPSHIRE DR,38.032261,-121.345493,,,,
1054,3759,WAGNER HEIGHTS & DON FS WB,WAGNER HEIGHTS RD & DON AVE,38.033831,-121.346036,,,,
1056,3760,WAGNER HEIGHTS & BLUE FOX WB,WAGNER HEIGHTS RD & BLUE FOX  WY,38.032364,-121.350577,,,,
1057,3761,BAINBRIDGE & WAGNER HEIGHTS NB,BAINBRIDGE PL & WAGNER HEIGHTS RD,38.032083,-121.355626,,,,
1061,3763,STANFIELD & BISMARK NS WB,STANFIELD RD & BISMARK PL,38.035016,-121.358506,,,,
1063,3764,STANFIELD & KELLEY NS WB,STANFIELD DR & KELLEY DR,38.034074,-121.363784,,,,
1065,3765,SALTERS & BANCROFT NS EB,SALTERS DR & BANCROFT WY,38.03684,-121.363661,,,,
1069,3776,OTTO & BISMARK NS EB,OTTO DR & BISMARK PL,38.03763,-121.359085,,,,
1070,3777,OTTO & RAMSEY  FS EB,OTTO DR & RAMSEY WY,38.038205,-121.354243,,,,
1071,3778,OTTO & KARDIGAN  NS EB,OTTO DR & KARDIGAN WY,38.037851,-121.351171,,,,
1072,3779,OTTO & BRISBANE FS EB,OTTO DR & BRISBANE PL,38.037647,-121.34879,,,,
1075,3782,LENOX & STANFIELD FS SB,LENOX PL & STANFIELD RD,38.036722,-121.344832,,,,
1076,3783,BRANSTETTER & BURLINGTON FS SB,BRANSTETTER PL & BURLINGTON PL,38.036061,-121.34681,,,,
1091,7009,PACIFIC & YOKUTS ARRIVE FS NB,PACIFIC AVE & YOKUTS AVE,37.996708,-121.31472,,,,
1099,7100,MLK BLVD & CALIFORNIA ST NS WB,,37.939922,-121.280727,,,,
1105,3397,ARGONAUT & MLK BLVD FS/SB,ARGONAUT ST & MLK BLVD,37.93523,-121.302951,,,,
1106,3398,ARGONAUT ST & IRENE ST NS/SB,,37.930412,-121.302936,,,,
1108,7138,SECTION & ORO (WOODY'S)  NS EB,SECTION AVE & ORO AVE,37.948801,-121.232122,,,,
1109,3640,SECTION & SINCLAIR NS EB,SECTION AVE & SINCLAIR AVE,37.948721,-121.2284,,,,
1113,7139,SINCLAIR & 6TH NS SB,SINCLAIR AVE & 6TH ST,37.944366,-121.226586,,,,
1116,3643,FARMINGTON & MISSION VALLEY LN FSWB,,37.939336,-121.238994,,,,
1119,7140,8TH & NIGHTINGALE NS WB,,37.936856,-121.244382,,,,
1130,7786,8TH & B STREET FS WB,"8TH ST & ""B"" ST",37.933885,-121.255489,,,,
1131,3649,B STREET & 6TH FS NB,"""B"" ST & 6TH ST",37.936901,-121.256569,,,,
1132,3650,B STREET & 4TH NS NB,"""B"" ST & 4TH ST",37.939318,-121.257569,,,,
1133,3651,MLK BLVD & B ST FS WB,,37.943539,-121.259258,,,,
1137,3652,WILSON WAY & ANDERSON NS NB,WILSON WY & ANDERSON ST,37.94584,-121.268724,,,,
1142,3657,ACACIA & MADISON  FS WB,ACACIA ST & MADISON AVE,37.961946,-121.296397,,,,
1143,7143,ACACIA & LINCOLN FS EB,ACACIA ST & LINCOLN ST,37.961258,-121.300257,,,,
1145,3659,ACACIA  & YOSEMITE NS WB,,37.960175,-121.306771,,,,
1150,3661,PERSHING & COUNTRY CLUB  FS NB,PERSHING AVE & COUNTRY CLUB BLVD,37.969495,-121.315121,,,,
1152,7051,PERSHING AV & ALPINE NS SB,PERSHING AVE & ALPINE AVE,37.975516,-121.317506,,,,
1154,3663,PERSHING & MONOCO ST FS NB,PERSHING AVE & MONOCO CT,37.988076,-121.321482,,,,
1156,3662,PERSHING & ROSEMARIE FS NB,PERSHING AVE & ROSEMARIE LN,37.986614,-121.320745,,,,
1162,3415,SWAIN RD & EXIT ST NS/WB,,38.001445,-121.330819,,,,
1164,3416,SWAIN RD & ALEXANDRIA PL NS/WB,,38.000013,-121.337278,,,,
1166,3418,PLYMOUTH RD & SWAIN RD FS/NB,,38.000416,-121.347637,,,,
1167,3419,PLYMOUTH RD & RUTLEDGE WY NS/NB,,38.002833,-121.348848,,,,
1168,3420,PLYMOUTH RD & BEN HOLT DR NS/NB,,38.004804,-121.349689,,,,
1171,3422,PLYMOUTH RD & BRIDGEPORT CIR FS/NB,,38.012386,-121.352494,,,,
1172,3423,KELLEY DR & PLYMOUTH DR FS/NB,,38.014777,-121.352612,,,,
1173,3425,KELLEY DR & HILLVIEW AV NS/NB,KELLEY DR & HILLVIEW AVE,38.017888,-121.355008,,,,
1175,7162,MARINERS & HAMMER LANE ARR NS NB,MARINERS DR & HAMMER LN,38.020568,-121.361417,,,,
1178,7107,KELLEY & HAMMER LANE NS NB,KELLEY DR & HAMMER LN,38.021216,-121.356105,,,,
1179,3434,KELLEY DR & KARLSBURG PL FS/SB,,38.016836,-121.354938,,,,
1180,3424,KELLEY DR & WARWICK CT FS/NB,,38.015676,-121.354257,,,,
1181,3437,PLYMOUTH RD & WHITTIER CT NS/SB,,38.011538,-121.352504,,,,
1183,3439,PLYMOUTH RD & BEN HOLT DR FS/SB,,38.00484,-121.349735,,,,
1184,3440,PLYMOUTH RD & RUTLEDGE CT FS/SB,,38.003011,-121.349055,,,,
1185,3441,SWAIN RD & PLYMOUTH RD FS/SB,,38.000354,-121.347614,,,,
1186,3417,SWAIN RD & PORTER WY FS/WB,,37.999972,-121.344659,,,,
1190,3444,SWAIN RD & HARRISBURG PL NS/SB,,38.001123,-121.332371,,,,
1192,7110,SWAIN RD & PERSHING AV NS EB,SWAIN RD & PERSHING AVE,38.002322,-121.327095,,,,
1197,3664,PERSHING & MARCH LANE FS SB,PERSHING AVE & MARCH LN,37.98887,-121.321908,,,,
1207,3666,PERSHING & ROSE FS SB,PERSHING AVE & ROSEMARIE LN,37.960735,-121.312368,,,,
1210,3667,ACACIA & YOSEMITE FS EB,ACACIA ST & YOSEMITE ST,37.960166,-121.306748,,,,
1212,7142,ACACIA & LINCOLN FS WB,ACACIA ST & LINCOLN ST,37.961267,-121.300315,,,,
1214,3670,ACACIA & MADISON NS EB,ACACIA ST & MADISON AVE,37.961905,-121.296471,,,,
1221,3674,WILSON WAY & ANDERSON FS SB,WILSON WY & ANDERSON ST,37.945813,-121.268885,,,,
1224,3675,B STREET & MLK BLVD FS SB,"""B"" ST & MLK BLVD",37.94378,-121.259384,,,,
1225,3676,B STREET & 4TH FS SB,"""B"" ST & 4TH ST",37.939176,-121.257534,,,,
1226,3677,B STREET & 6TH FS SB,"""B"" ST & 6TH ST",37.936847,-121.256569,,,,
1240,3679,FARMINGTON & MADRID FS EB,FARMINGTON RD & MADRID DR,37.939086,-121.239775,,,,
1244,3682,OLIVE & 4TH NS NB,OLIVE AVE & 4TH ST,37.945134,-121.231802,,,,
1250,7023,MATTHEWS RD & CANILIS BLVD,MATTHEWS RD & CANLIS BLVD,37.882609,-121.297324,,,,
1266,3799,LOUSE AVE & HARLAN RD EB,LOUISE AVE & HARLAN RD,37.811722,-121.290893,,,,
1274,3800,LATHROP RD & HARLAN RD FS WB,,37.826401,-121.288355,,,,
1279,7206,HAM & LODI FS SB,HAM LN & LODI AVE,38.129988,-121.288357,,,,
1292,7204,HAM & LODI NS NB,HAM LN & LODI AVE,38.12997,-121.288219,,,,
1295,3846,HAM & KETTLEMAN FS NB,HAM LN & KETTLEMAN LN,38.115606,-121.288004,,,,
1305,3809,LOUISE AVE & HARLAN RD NS WB,,37.811874,-121.291375,,,,
1430,7205,LODI TRANSIT STATION NS WB,LODI TRANSIT CENTER & SACRAMENTO ST,38.132954,-121.272258,,,,
1431,7020,CALIFORNIA & WALNUT NS NB,CALIFORNIA ST & WALNUT ST,37.970023,-121.289001,,,,
1432,7325,WEST LANE & STADIUM NS SB,WEST LANE & STADIUM DR,37.985487,-121.28448,,,,
1498,3844,LOWER SAC & HIGHMOOR AVE FS NB,LOWER SAC RD & HIGHMOOR AVE,38.025049,-121.322783,,,,
1499,3845,LOWER SAC & PONCE DE LEON NS NB,LOWER SAC RD & PONCE DE LEON AVE,38.02885,-121.322648,,,,
1532,7188,TRACY WALMART,,37.753037,-121.469963,,,,
1575,7195,LATHROP COMM CTR MB SB,5TH ST & LATHROP COMM CENTER,37.820934,-121.27826,,,,
1583,7199,MANTECA WAL-MART ARR,,37.787517,-121.216093,,,,
1622,7111,CUMBERLAND & BEN HOLT FS NB,CUMBERLAND DR & BEN HOLT DR,38.005846,-121.362625,,,,
1624,7122,BENJAMIN HOLT & PERSHING FS WB,BEN HOLT DR & PERSHING AVE,38.008539,-121.329343,,,,
1627,7191,5TH STREET @ COMMUNITY CENTER MB NB,5TH STREET & LATHROP COMM CENTER,37.820862,-121.278225,,,,
1639,7207,KETTLEMAN & TIENDA FS SB,KETTLEMAN LN & TIENDA DR,38.115601,-121.303065,,,,
1651,7007,PACIFIC & ELM NS NB,PACIFIC AVE & ELM ST,37.967798,-121.2984,,,,
1656,7048,DAVINCI & MARCH NS NB,DAVINCI DR & MARCH LN,37.984558,-121.339801,,,,
1661,7079,KERMIT & BENJAMIN HOLT FS NB,KERMIT LN & BENJAMIN HOLT DR,38.0123,-121.303051,,,,
1662,7081,WEST LANE & BIANCHI FS NB,WEST LANE & BIANCHI RD,37.997807,-121.288866,,,,
1663,7084,LORRAINE & HAMMER FS SB,LORRAINE AVE & HAMMER LN,38.020872,-121.283323,,,,
1666,7010,MALL TRANSFER ARR (NORTH),MALL TRANSFER STATION ARR N,37.99711,-121.312616,,,,
1669,7221,S. MAIN & INDUSTRIAL PARK DR FS NB,MAIN ST & INDUSTRIAL PARK DR,37.7879,-121.215863,,,,
1672,3973,BEN HOLT & INGLEWOOD FS WB,BEN HOLT DR & INGLEWOOD AVE,38.011758,-121.317745,,,,
1674,7194,SHIMA PARKING LOT,,37.996366,-121.320295,,,,
1688,3358,FREMONT ST & FILBERT ST FS/WB,,37.965568,-121.256203,,,,
1690,7087,WILSON & LINDSAY NS NB,WILSON WY & LINDSAY ST,37.95974,-121.272599,,,,
1691,7066,LOWER SAC & HAMMER FS NB,LOWER SAC RD & HAMMER LN,38.021677,-121.322917,,,,
1696,3147,WEBER & VAN BUREN FS/EB,WEBER AVE & VAN BUREN ST,37.952596,-121.29646,,,,
1697,3148,WEBER & COMMERCE NS/EB,WEBER AVE & COMMERCE ST,37.953248,-121.292681,,,,
1716,7152,WASHINGTON & CARDINAL NS EB,WASHINGTON ST & CARDINAL WY,37.966448,-121.222833,,,,
1718,3717,8TH & POCK LANE FS EB,8TH ST & POCK LN,37.935955,-121.247483,,,,
1720,7151,ORO & MAIN FS NB,ORO AVE & MAIN ST,37.954102,-121.234292,,,,
1739,7090,WATERLOO RD & GOLDEN  GATE FS WB,WATERLOO RD & GOLDEN GATE AVE,37.980004,-121.257262,,,,
1741,7099,8TH STREET & SAN JOAQUIN NS EB,8TH STREET & SAN JOAQUIN ST,37.92926,-121.280539,,,,
1755,7105,8th & HOUSTON ST FS EB,8TH ST & HOUSTON ST,37.926603,-121.320884,,,,
1759,7047,ROSE MARIE & MCGAW MB WB,ROSE MARIE LN & MCGAW ST,37.985308,-121.32594,,,,
1762,7148,MAIN & GERTRUDE FS WB,MAIN ST & GERTRUDE AVE,37.954494,-121.232374,,,,
1763,7046,PERSHING & LARRY HELLER FS NB,PERSHING AVE & LARRY HELLER,37.975543,-121.317471,,,,
1766,3801,STONEBRIDGE & OPAL FS WB,STONEBRIDGE LN & OPAL ST,37.835851,-121.28228,,,,
1772,7057,PERSHING AV & FREMONT ST FS NB,PERSHING AVE & FREMONT ST,37.954284,-121.31219,,,,
1777,7102,STOCKTON ST & CHARTER WY NS NB,STOCKTON ST & MLK BLVD,37.936008,-121.29985,,,,
1778,7091,FILBERT ST & POPLAR ST FS SB,,37.968583,-121.257571,,,,
1780,7141,WILSON & JACKSON NS NB,WISLON WY & JACKSON ST,37.943912,-121.268218,,,,
1783,7004,MINER & WILSON NS EB,MINER AVE & WILSON WY,37.958785,-121.272358,,,,
1784,7183,OTTO DR & ESTATE DR NS EB,,38.037653,-121.362892,,,,
1787,7082,HAMMER & LORRAINE FS EB,HAMMER LN & LORRAINE AVE,38.020917,-121.283128,,,,
1792,7001,MINER & SIERRA NEVADA FS WB,MINER AVE & SIERRA NEVADA,37.95858,-121.273679,,,,
1798,4043,ROYAL OAKS & ROYAL PARK LN FS EB,,38.036822,-121.329845,,,,
1800,7217,MAIN & LOUISE FS SB,MAIN ST & LOUISE AVE,37.811858,-121.217102,,,,
1801,7216,99 FRONTAGE & TOGNINALI LN FS SB,HWY 99 FRONTAGE RD & TOGNINALI LN,37.918224,-121.228582,,,,
1802,7189,EAST & 10TH ST FS NB,EAST ST & 10TH ST,37.73866,-121.421118,,,,
1809,3542,8TH & SCRIBNER FS/WB,8TH ST & SCRIBNER ST,37.932743,-121.259854,,,,
1810,3543,8TH & ANNE NS/WB,8TH ST & ANNE ST,37.932189,-121.262312,,,,
1812,3547,MLK BLVD & AIRPORT FS/WB,MLK BLVD & AIRPORT WY,37.941655,-121.270607,,,,
1813,3342,WILSON WY & PINCHOT ST NS/NB,,37.968885,-121.275061,,,,
1814,3548,STANISLAUS & JACKSON FS/NB,STANISLAUS ST & JACKSON ST,37.942189,-121.278694,,,,
1815,3549,STANISLAUS & WORTH FS/NB,STANISLAUS ST & WORTH ST,37.945142,-121.279476,,,,
1817,3347,SANGUINETTI LN & WILSON WY NS/NB,,37.983214,-121.271192,,,,
1818,3560,EL DORADO & WYANDOTTE NS/NB,EL DORADO ST & WYANDOTTE ST,37.971556,-121.29538,,,,
1819,3348,WILSON WY & E ST FS/NB,,37.985374,-121.270009,,,,
1820,3562,EL DORADO & NOBLE NS/NB,EL DORADO ST & NOBLE ST,37.976078,-121.29767,,,,
1821,3565,EL DORADO & CHURCHILL FS/NB,EL DORADO ST & CHURCH ST,37.985936,-121.301676,,,,
1823,3332,KENTFIELD & SURREY LANE FS/NB,KENTFIELD RD & SURREY LN,37.994323,-121.301325,,,,
1826,3366,BRADFORD & WILSON NS/WB,BRADFORD ST & WILSON WY,37.973926,-121.276247,,,,
1828,3571,IRIS & HAMMER VILLAGE FS EB,IRIS AVE & HAMMER VILLAGE,38.02261,-121.312683,,,,
1830,3354,FILBERT ST & ROOSEVELT ST NS/SB,,37.971358,-121.258709,,,,
1831,3353,FILBERT & OAK FS/NB,FILBERT ST & OAK ST,37.96621,-121.256514,,,,
1832,3369,FILBERT & ROOSEVELT NS/NB,FILBERT ST & ROOSEVELT ST,37.971135,-121.258605,,,,
1833,3582,SANDLEWOOD & RINGWOOD NS WB,SANDLEWOOD DR & RINGWOOD AVE,38.032131,-121.28924,,,,
1834,3584,WEST LANE FRTG @ 8700 WEST LANE,WEST LANE FRONAGE & 8700 WEST LANE,38.030246,-121.294598,,,,
1835,3590,PROSPECTOR & WEST LANE FRONTAGE WB,PROSPECTOR DR & WEST LANE FRONTAGE,38.032173,-121.295278,,,,
1836,3591,TAM O'SHANTER & LIKALA FS SB,TAM O'SHANTER DR & LIKALA DR,38.030039,-121.300567,,,,
1837,3592,TAM O'SHANTER & ERIE NS SB,TAM O'SHANTER DR & ERIE DR,38.025123,-121.300541,,,,
1839,3593,IRIS & LAN ARK FS WB,IRIS AVE & LAN ARK DR,38.021916,-121.309716,,,,
1840,3594,IRIS AVE & IRIS CT FS WB,,38.021852,-121.311441,,,,
1841,3595,IRIS & DUNBARTON FS WB,IRIS AVE & DUNBARTON WY,38.02268,-121.314696,,,,
1843,3600,EL DORADO & ALPINE FS SB,EL DORADO ST & ALPINE AVE,37.980004,-121.299247,,,,
1845,3612,STANISLAUS & JACKSON FS SB,STANISLAUS ST & JACKSON ST,37.942144,-121.278706,,,,
1847,3613,AIRPORT & 2ND FS SB ARR,AIRPORT WY & 2ND ST,37.937426,-121.269285,,,,
1849,3614,AIRPORT & 6TH FS SB,AIRPORT WY & 6TH ST,37.934036,-121.268021,,,,
1850,7615,AIRPORT & 8TH FS SB,AIRPORT WY & 8TH ST,37.931609,-121.267113,,,,
1851,3616,AIRPORT & 10TH FS SB,AIRPORT WY & 10TH ST,37.92912,-121.266216,,,,
1852,3618,RALPH & ZAMORA FS EB,RALPH AVE & ZAMORA WY,37.921911,-121.254845,,,,
1853,3620,B STREET & 13TH FS NB,"""B"" ST & 13TH ST",37.928478,-121.253157,,,,
1854,3621,B STREET & 10TH FS NB,"""B"" ST & 10TH ST",37.931949,-121.254547,,,,
1864,7126,HOLMAN & E TELESTAR PL  ARR FS NB,HOLMAN RD & TELSTAR PL,38.018395,-121.270397,,,,
1869,7203,KETTLEMAN & TIENDA FS NB,KETTLEMAN LN & TIENDA DR,38.115413,-121.302547,,,,
1881,7737,LINCOLN ST & WEBER AVE FS SB,,37.952203,-121.297827,,,,
1883,3864,CHURCH ST & PERSHING AVE NS WB,,37.944971,-121.307966,,,,
1895,3585,WEST LN & WEST LN FRONT RD SB,WEST LANE RD & WEST LANE FRONTAGE,38.029149,-121.295035,,,,
1932,3634,WEST LANE & HAMMER LANE FS NB,WEST LANE & HAMMER LN,38.021137,-121.294765,,,,
1942,3162,GEORGIA AVE & LEVER BL FS/SB,GEORGIA AVE & LEVER BLVD,37.923177,-121.300542,,,,
1943,3163,COLORADO AVE & FLINT AVE FS/NB,,37.921126,-121.297624,,,,
1956,3081,MOSSWOOD & ODELL FS/EB,MOSSWOOD AVE & ODELL AVE,37.923379,-121.285543,,,,
1959,3304,KENTFIELD & MARCH LN FS/SB,,37.997543,-121.303362,,,,
1960,3331,BIANCHI & KENTFIELD NS/WB,BIANCHI RD & KENTFIELD RD,37.992923,-121.300474,,,,
1961,3305,DORSET & BIANCHI NS/SB,,37.994324,-121.298175,,,,
1963,3328,BIANCHI & CLOWES FS/WB,,37.997432,-121.29005,,,,
1966,3329,BIANCHI & HILLSBORO FS/WB,,37.995895,-121.295751,,,,
1967,3314,LORRAINE & HOMEWOOD DR FS/NB,,38.017018,-121.28454,,,,
1969,3316,HAMMER & PAVILION PLAZA FS/EB,HAMMER LN & PAVILION PLAZA,38.020972,-121.276297,,,,
1970,3318,HAMMER LN & HOLMAN RD FS/EB,,38.021018,-121.271432,,,,
1971,3319,SAMPSON RD & HAMMER LN FS/SB,,38.02051,-121.267764,,,,
1972,3321,HAMMER & GIRARDI FS/WB,HAMMER LN & GIRARDI,38.021151,-121.276872,,,,
1973,3322,LORRAINE & HOMEWOOD NS/SB,,38.017044,-121.284678,,,,
1974,3324,HAMMERTOWN & EVEREST AVE FS/WB,HAMMERTOWN DR & EVEREST AVE,38.01656,-121.291969,,,,
1979,3515,N AIRPORT WY & E PARK ST FS/NB,,37.962398,-121.276024,,,,
1980,3516,N AIRPORT WY & E ROOSEVELT ST NS/NB,,37.966805,-121.277221,,,,
1982,3518,HARDING WY & N FUNSTON AVE FS/EB,HARDING WY & FUNSTON ST,37.971026,-121.273177,,,,
1983,3519,HARDING WY & HIAWATHA AVE FS/EB,,37.971625,-121.270201,,,,
1984,3520,CHEROKEE RD & WATERLOO RD FS/NB,,37.973427,-121.267754,,,,
1985,3521,CHEROKEE RD & MYRAN AVE FS/NB,,37.983564,-121.260308,,,,
1988,3373,GRANT & 6TH FS/NB,GRANT ST & 6TH ST,37.93308,-121.274854,,,,
1990,3376,MLK BLVD & GRANT FS/WB,MLK BLVD & GRANT ST,37.940565,-121.27697,,,,
1991,3867,CAROLYN WESTON & MCDOUGALD FS WB,CAROLYN WESTON BLVD & MCDOUGALD BLVD,37.911294,-121.297572,,,,
1992,3868,CAROLYN WESTON & GENERAL MUELLER WB,CAROLYN WESTON BLVD & GEN MUELLER LN,37.911364,-121.300775,,,,
1993,3870,CAROLYN WESTON & ISHI GOTO ST FS WB,CAROLYN WESTON BLVD & ISHI GOTO ST,37.912101,-121.308182,,,,
1994,7210,CAROLYN WESTON & GASWELL FS WB,CAROLYN WESTON BLVD & GASWELL,37.913402,-121.312696,,,,
1995,3875,HENRY LONG & EWS WOOD BLVD FS EB,HENRY LONG VLVD & EWS WOODS BLVD,37.902093,-121.30256,,,,
1996,3879,WILLIAM MOSS & RAMALHO LN FS EB,WILLIAM MOSS BLVD & RAMALHO LN,37.906576,-121.29254,,,,
1997,3876,HENRY LONG & WOODHOLLOW FS EB,HENRY LONG BLVD & WOODHOLLOW AVE,37.901184,-121.299012,,,,
1998,3877,MCDOUGALD & HENRY LONG FS NB,MCDOUGALD BLVD & HENRY LONG BLVD,37.901061,-121.294833,,,,
1999,3871,CAROLYN WESTON & KAY BRIDGES FS WB,CAROLYN WESTON BLVD & KAY BRIDGES PL,37.911356,-121.31754,,,,
2000,3872,CAROLYN WESTON & MONET DRIVE FS SB,CAROLYN WESTON BLVD & MONET DR,37.907028,-121.319281,,,,
2001,3873,CAROLYN WESTON & ASO TARO CT FS SB,CAROLYN WESTON BLVD & ASO TARO CT,37.905493,-121.319567,,,,
2002,3874,HENRY LONG & ESTES AVE EB,HENRY LONG BLVD & ESTES AVE,37.902256,-121.316763,,,,
2004,3878,MCDOUGALD & BESS PL NS NB,MCDOUGLAD BLVD & BESS PL,37.904737,-121.295443,,,,
2005,7103,CALIFORNIA & VINE FS NB,CALIFORNIA ST & VINE ST,37.966651,-121.28808,,,,
2006,3843,PACIFIC @ HAMMER RANCH CENTER NB,PACIFIC AVE & HAMMER LN,38.017849,-121.323144,,,,
2012,3762,STANFIELD & APPLING CIR NS WB,STANFIELD DR & APPLING CIR,38.035312,-121.356275,,,,
2016,3482,THORNTON & A.G. SPANOS BLVD FS/NB,THORNTON RD & A.G. SPANOS BLVD,38.045721,-121.350296,,,,
2019,3507,THORNTON & A.G. SPANOS  BLVD FS/SB,THORNTON RD & A.G. SPANOS,38.045515,-121.350411,,,,
2020,3409,STOCKTON  ST & GABRIEL CT NS/NB,STOCKTON STQ & GABRIEL CT,37.92821,-121.29981,,,,
2021,3408,STOCKTON ST & 8TH ST FS/NB,,37.926675,-121.299821,,,,
2023,3450,HERNDON & MILL SPRINGS FS/SB,HERNDON PL & MILL SPRINGS DR,38.008964,-121.357571,,,,
2028,3454,BENJAMIN HOLT & GETTYSBERG NS/EB,BENJAMIN HOLT DR & GETTYSBURG,38.010068,-121.323987,,,,
2030,3523,MARANTHA DR & CHRISTIAN LIFE WY NB,,38.024552,-121.264085,,,,
2032,3532,HOLMAN RD & WAKEMAN DR FS/NB,HOLMAN RD & WAKEMAN RD,38.024051,-121.271054,,,,
2033,3524,HOLMAN RD & BRYANT DR FS/SB,,38.027183,-121.269721,,,,
2034,3401,DRY CREEK WY & HOUSTON AV NS/SB,DRY CREEK WY & HOUSTON AVE,37.921345,-121.308649,,,,
2035,3402,HOUSTON AV & SUNOL VALLEY  FS/NB,HOUSTON AVE & SUNOL VALLEY ST,37.921537,-121.316148,,,,
2037,3403,HOUSTON ST & VAN BUSKIRK ST F/NB,HOUSTON ST & VAN BUREN ST,37.9239,-121.320078,,,,
2038,3404,8TH ST  & TILLIE LEWIS DR FS/EB,,37.926604,-121.318208,,,,
2039,3410,STOCKTON ST & 5TH ST NS/NB,,37.930878,-121.299824,,,,
2040,3405,8TH ST  & FRESNO AV NS/EB,8TH ST & FRESNO AVE,37.926625,-121.312133,,,,
2041,3527,MARCH LN & HOLMAN RD FS/WB,,38.005752,-121.272509,,,,
2042,3525,HOLMAN RD & WAKEMAN DR FS/SB,HOLMAN RD & WAKEMAN RD,38.024051,-121.27133,,,,
2047,3641,SINCLAIR & 4TH ST NS SB,SINCLAIR AVE & 4TH ST,37.946383,-121.227401,,,,
2049,3653,WILSON & HAZELTON FS NB,WISLON WY & HAZELTON AVE,37.949935,-121.269862,,,,
2050,3655,WILSON & MARKET FS NB,WILSON WY & MARKET ST,37.954842,-121.271242,,,,
2053,3414,SWAIN RD & GLEN ST NS/WB,,38.002975,-121.324612,,,,
2054,3421,PLYMOUTH RD  & CRITTENDEN CT FS/NB,,38.009264,-121.351604,,,,
2055,3435,KELLEY DR & WARWICK CT NS/SB,KELELY DR & WARWICK CT,38.015667,-121.35428,,,,
2057,3436,PLYMOUTH RD & KELLEY DR FS/SB,,38.014652,-121.352393,,,,
2058,3438,PLYMOUTH RD & CUSHING CT FS/SB,,38.008407,-121.351269,,,,
2059,3443,SWAIN RD & WILLIAMSBURG PL FS/SB,,38.000094,-121.33629,,,,
2060,3445,SWAIN & GLEN NS/EB,SWAIN RD & GLEN ST,38.00293,-121.324716,,,,
2061,3487,MORADA & LOWER SAC FS/EB,MORADA LN & LOWER SACRAMENTO RD,38.035533,-121.322563,,,,
2062,3489,EL DORADO & NORMANDY CT FS/SB,EL DORADO ST & NORMANDY CT,38.029353,-121.316254,,,,
2063,3665,PERSHING & COUNTRY CLUB FS SB,PERSHING AVE & COUNTRY CLUB BLVD,37.969433,-121.315121,,,,
2068,3671,WILSON & MAIN FS SB,WILSON WY & MAIN ST,37.955796,-121.271518,,,,
2069,3672,WILSON & LAFAYETTE NS SB,WILSON WY & LAFAYETTE ST,37.952897,-121.270748,,,,
2070,3673,WILSON & HAZELTON NS SB,WILSON WY & HAZELTON AVE,37.949846,-121.269989,,,,
2072,3680,FARMINGTON @ 3808 EB,FARMINGTON RD & 3808 FARMINGTON RD,37.939737,-121.237363,,,,
2076,3084,8TH & SAN JOAQUIN NS/EB,8TH ST & SAN JOAQUIN ST,37.929233,-121.280665,,,,
2079,3128,CLAYTON & HARVEY FS/EB,CLAYTON AVE & HARVEY AVE,37.910928,-121.277266,,,,
2080,3129,EL DORADO & WESTERN LUMBER MB/SB,EL DORADO ST & WESTERN LUMBER,37.905215,-121.275718,,,,
2083,7793,MARANATHA DR & CHRISTIAN LIFE NS SB,MARANTHA DR & CHRISTIAN LIFE,38.024347,-121.264119,,,,
2086,3537,CHEROKEE RD & SIERRA LN FS/SB,,37.976952,-121.265249,,,,
2087,3538,HARDING WY & HIAWATHA ST FS/WB,,37.971616,-121.270327,,,,
2088,3539,HARDING WY & FUNSTON AVE FS/WB,,37.971035,-121.273292,,,,
2089,3517,AIRPORT WY & HARDING WY NS/NB,,37.970142,-121.278153,,,,
2090,3541,AIRPORT WY & ROOSEVELT ST FS/SB,,37.966788,-121.277244,,,,
2092,3683,MAIN & ANTEROS NS WB,MAIN ST & ANTEROS AVE,37.9542,-121.237682,,,,
2093,3686,MAIN & F STREET FS WB,"MAIN ST & ""F"" ST",37.955004,-121.254583,,,,
2094,3688,MAIN & D STREET FS WB,"MAIN ST & ""D"" ST",37.955245,-121.259293,,,,
2099,3692,LAUREL & FREMONT FS NB,LAUREL ST & FREMONT ST,37.962462,-121.265235,,,,
2101,3694,FLORA & F STREET FS EB,"FLORA ST & ""F"" ST",37.967093,-121.259823,,,,
2103,3359,FREMONT & LAUREL FS/WB,FREMONT ST & LAUREL ST,37.962221,-121.265258,,,,
2104,3695,FLORA & F STREET FS WB,"FLORA ST & ""F"" ST",37.967111,-121.259915,,,,
2109,3798,EAST & CARLTON FS NB,EAST ST & CARLTON WY,37.74636,-121.421148,,,,
2113,3703,MAIN & FAIR OAKS LIBRARY EB,MAIN ST & FAIR OAKS LIBRARY,37.955031,-121.255594,,,,
2115,3709,WASHINGTON & DAWES NS EB,WASHINGTON ST & DAWES AVE,37.963978,-121.232084,,,,
2118,3712,CARDINAL & MEADOWOOD FS SB,CARDINAL AVE & MEADOW00D DR,37.959657,-121.219906,,,,
2119,3713,MAIN & DEL MAR FS WB,MAIN ST & DEL MAR AVE,37.955903,-121.226732,,,,
2127,3890,TOGNINALI & POCK FS EB,TOGNINALI LN & POCK LN,37.91645,-121.238711,,,,
2129,3812,WILMA AV & 4TH ST NS SB,,37.735903,-121.135494,,,,
2137,3899,TOGNINALI & KIMBALL FS WB,TOGNINALI LN & KIMBALL LN,37.91752,-121.234623,,,,
2138,3900,TOGNINALI & POCK NS WB,TOGNINALI LN & POCK LN,37.916361,-121.239124,,,,
2142,3654,WILSON & LAFAYETTE NS NB,WILSON WY & LAFAYETTE ST,37.952834,-121.270713,,,,
2148,3903,EAST & GRANT LINE FS SB,EAST ST & GRANT LINE RD,37.753917,-121.421222,,,,
2153,3530,HOLMAN & ETCHEVERY FS/NB,HOLMAN RD & ETCHEVERRY DR,38.004717,-121.271819,,,,
2157,3540,AIRPORT & HARDING FS/SB,AIRPORT WY & HARDING WY,37.970106,-121.278176,,,,
2161,3862,LINCOLN ST & SONORA ST FS SB,,37.947439,-121.296526,,,,
2162,3865,FRESNO AVE & SONORA ST FS NB,,37.944808,-121.312469,,,,
2172,3810,GRANT LINE & EAST ST FS WB,,37.754256,-121.421246,,,,
2173,3916,THORNTON & PERSHING FS SB,THORNTON RD & PERSHING AVE,38.025946,-121.329787,,,,
2174,3911,THORNTON & MACDUFF FS NB,THORNTON RD & MCDUFF AVE,38.026107,-121.329695,,,,
2178,3811,GRANT LINE & ORCHARD PKWY FS WB,GRANT LINE RD & ORCHARD PKWY,37.754193,-121.456446,,,,
2179,3796,GRANT LINE & ORCHARD PKWY FS/EB,GRANT LINE RD & ORCHARD PKWY,37.754015,-121.456537,,,,
2187,3921,FRONTAGE RD & SHDW LK MBLHM PRK -NB,N HIGHWAY 99 & N 99 FRONTAGE RD,38.009947,-121.257103,,,,
2264,3819,GIANNECCHINI LN & TRANSWORLD DR NB,,37.908277,-121.23335,,,,
2268,3716,POCK & MAYA ANGELOU LIBRARY NB,POCK LN & MAYA ANGELO LIBRARY,37.934286,-121.246909,,,,
2304,7222,MAIN & LOUISE NS NB,MAIN ST & LOUISE AVE,37.811858,-121.216953,,,,
2315,7119,MORADA & EL DORADO NS EB,MORADA LN & EL DORADO ST,38.035482,-121.318077,,,,
2317,3908,8TH & NIGHTINGALE FS EB,8TH ST & NIGHTINGALE AVE,37.936847,-121.244359,,,,
2329,7324,HOLMAN & AUTO CENTER FS SB,HOLMAN RD & AUTO CENTER DR,38.019688,-121.271191,,,,
2336,3797,GRANT LINE & EAST ST FS EB,GRANT LINE RD & EAST ST,37.754132,-121.420753,,,,
2344,7192,HARLAN RD & LATHROP RD FS SB,,37.825597,-121.288561,,,,
2348,3807,STONEBRIDE & OPAL,STONEBIRDGE RD & OPAL,37.835815,-121.282601,,,,
2353,7127,PARK ST & AURORA ST NS WB,,37.961442,-121.281206,,,,
2358,7000,FILBERT & MYRTLE FS NB,FILBERT ST & MYRTLE ST,37.961553,-121.254296,,,,
2377,3306,BIANCHI ROAD & HILLSBORO WAY NS/EB,,37.995878,-121.295705,,,,
2378,3637,ELAINE DR & KERMIT LN,,38.005957,-121.30154,,,,
2381,3856,LINCOLN & LAYFAYETTE NS NB,LINCOLN ST & LAFAYETTE ST,37.948536,-121.296791,,,,
2383,3144,WEBER & CENTER FS/WB,WEBER AVE & CENTER ST,37.95357,-121.291463,,,,
2386,3710,WASHINGTON ST & THELMA FS EB,WASHINGTON ST & THELMA AVE,37.965244,-121.227361,,,,
2389,3372,CALIFORNIA & 7TH STREET FS/NB,CALIFORNIA ST & 7TH ST,37.931277,-121.278472,,,,
2399,7059,MT. DIABLO & RYDE FS WB,MT. DIABLO AVE & RYDE AVE,37.956547,-121.333402,,,,
2409,3529,MARCH LN & BIANCHI RD FS/EB,,38.003501,-121.284546,,,,
2411,3528,MARCH LN & MONTAUBAN AVE FS/WB,MARCH LN & HOLMAN RD,38.003643,-121.28481,,,,
2439,3553,WEBER & STANISLAUS FS/WB,WEBER AVE & STANISLAUS ST,37.955125,-121.282376,,,,
2443,3583,SANDLEWOOD DR & WL FRTG NS WB,SANDLEWOOD DR & WEST LANE FRONTAGE,38.032066,-121.294645,,,,
2468,7211,HENRY LONG & MCCUEN FS EB,HENRY LONG BLVD & MCCUEN,37.902091,-121.308117,,,,
2483,3535,WIGWAM DR & LANCE DR FS/SB,,37.985991,-121.256366,,,,
2485,3820,QANTAS & TRANSWORLD SB,QANTAS LN & TRANSWORLD DR,37.905581,-121.228884,,,,
2488,3847,KETTLEMAN & HAM FS WB,KETTLEMAN LN & HAM LN,38.115472,-121.288592,,,,
2491,7025,DOWNTOWN TRANSIT CENTER DEP B,,37.955089,-121.285087,,,,
2493,7017,DOWNTOWN TRANSIT CENTER DEP C,,37.955124,-121.285627,,,,
2497,7003,DOWNTOWN TRANSIT CENTER DEP D,,37.954928,-121.285386,,,,
2498,3630,TAM O SHANTER DR & HAMMER LN FS SB,,38.020804,-121.300619,,,,
2506,3486,LOWER SAC & ROYAL OAKS FS SB,LOWER SACRAMENTO RD & ROYAL OAKS DR,38.036844,-121.322829,,,,
2509,7172,OAK & AURORA FS EB,OAK ST & AURORA,37.960479,-121.280942,,,,
2518,3484,DAVIS RD & CHAPARRAL WY FS/SB,,38.040586,-121.331873,,,,
2519,3394,MLK BLVD & EL DORADO ST NS/WB,,37.939037,-121.285964,,,,
2520,3395,MLK BLVD & VAN BUREN ST FS/WB,,37.937813,-121.292546,,,,
2531,7169,HAMMER LN & DON  AV FS WB,HAMMER LN & DON AVE,38.02134,-121.345629,,,,
2532,7184,OTTO & THORNTON RD NS EB,OTTO DR & THORNTON RD,38.038998,-121.343961,,,,
2533,7185,STANFIELD & THORNTON FS WB,STANFIELD DR & THORNTON RD,38.037046,-121.34175,,,,
2536,7182,DON AVE & SANTIAGO WAY FS NB,DON AVE & SANTIAGO WY,38.023401,-121.345448,,,,
2539,7176,TRINITY PKWY & COSUMNES DR FS NB,,38.048769,-121.373619,,,,
2540,7165,HAMMER TRIANGLE ARR SB,LOWER SAC RD & HAMMER LN,38.020061,-121.323652,,,,
2541,7083,HAMMER LN & HOLMAN RD FS WB,,38.021187,-121.271709,,,,
2543,7163,HAMMER LN &  MEADOW AV FS EB,HAMMER LN & MEADOW AVE,38.021189,-121.345387,,,,
2569,3307,BIANCHI RD & CLOWES ST NS/EB,,37.997414,-121.289981,,,,
2572,3000,MINER AV & AIRPORT WAY FS WB,MINER AVE & AIRPORT WAY,37.958356,-121.274977,,,,
2573,3001,MINER AVE & AIRPORT WAY NS/EB,,37.958303,-121.275138,,,,
2577,7006,DOWNTOWN TRANSIT CENTER DEP A,,37.954931,-121.28623,,,,
2578,3003,FREMONT ST & CENTER ST NS/WB,,37.957558,-121.29243,,,,
2579,3004,FREMONT ST & MADISON ST NS/WB,,37.957093,-121.295015,,,,
2580,3005,MADISON ST & FLORA ST NS/NB,,37.959983,-121.295787,,,,
2581,3006,MADISON ST & ACACIA ST FS/NB,,37.961982,-121.296339,,,,
2582,3007,MADISON ST & VINE ST FS/NB,,37.964926,-121.297146,,,,
2583,3008,PACIFIC AV & PINE ST NS/NB,PACIFIC AVE & PINE ST,37.971768,-121.300482,,,,
2584,3009,PACIFIC AV & CASTLE ST FS/NB,PACIFIC AVE & CASTLE ST,37.973097,-121.301449,,,,
2585,3010,PACIFIC AV & MONTEREY AV FS/NB,PACIFIC AVE & MONTEREY AVE,37.976031,-121.303646,,,,
2587,3012,PACIFIC AV & BIANCHI RD NS/NB,PACIFIC AVE & BIANCHI RD,37.987779,-121.311172,,,,
2588,3013,PACIFIC AV & MARCH LN FS/NB,PACIFIC AVE & MARCH LN,37.99256,-121.313049,,,,
2589,3014,PACIFIC AV & WEBERTOWN ENT MB/NB,PACIFIC AVE & WEBERSTOWN MALL,37.994148,-121.313694,,,,
2591,3015,PACIFIC AV & MARCH FS/SB,PACIFIC AVE & MARCH LN,37.990963,-121.312634,,,,
2592,3016,PACIFIC AV & BIANCHI RD FS/SB,PACIFIC AVE & BIANCHI RD,37.987698,-121.311355,,,,
2594,3018,PACIFIC AV & MONTEREY AV NS/SB,PACIFIC AVE & MONTEREY AVE,37.976067,-121.303703,,,,
2595,3019,PACIFIC AV & TUXEDO AV NS/SB,PACIFIC AVE & TUXEDO AVE,37.971697,-121.300482,,,,
2596,3020,MADISON ST & VINE ST NS/SB,,37.964953,-121.29718,,,,
2597,3021,MADISON ST & MAGNOLIA ST FS/SB,,37.962901,-121.296639,,,,
2598,3022,MADISON ST & FLORA ST FS/SB,,37.959957,-121.29581,,,,
2599,3023,FREMONT ST & COMMERCE ST FS/EB,,37.957316,-121.293682,,,,
2600,3024,SAN JOAQUIN ST & LAFAYETTE ST FS/NB,,37.950288,-121.286372,,,,
2602,3026,SAN JOAQUIN ST & MAIN ST FS/NB,,37.953152,-121.287131,,,,
2603,3027,CALIFORNIA ST & FREMONT ST NS/NB,,37.958604,-121.285893,,,,
2604,3028,CALIFORNIA ST & OAK ST NS/NB,,37.959576,-121.286146,,,,
2605,3029,CALIFORNIA ST & FLORA ST FS/NB,,37.961494,-121.286687,,,,
2606,3030,CALIFORNIA ST & MAGNOLIA ST FS/NB,,37.964447,-121.287504,,,,
2607,3031,CALIFORNIA ST & VINE ST FS/NB,,37.966455,-121.288045,,,,
2608,3032,CALIFORNIA ST & WYANDOTTE ST FS/NB,,37.972923,-121.289945,,,,
2609,3033,CALIFORNIA ST & 2420 CALIFORNIA ST,,37.978302,-121.292166,,,,
2610,3034,CALIFORNIA ST & SONOMA AV FS/NB,CALIFORNIA ST & SONOMA AVE,37.98088,-121.293259,,,,
2611,3035,WEST LN & ENTERPRISE ST NS/NB,WEST LANE & ENTERPRISE ST,37.990206,-121.285977,,,,
2613,3037,WEST LN & MARCH LN FS/NB,WEST LANE & MARCH LANE,38.002169,-121.290581,,,,
2614,3038,WEST LN & ATCHENSON ST FS/NB,,38.006068,-121.292181,,,,
2615,3039,WEST LN & SWAIN RD FS/NB,,38.010939,-121.294058,,,,
2616,3040,TAM O SHANTER DR & HAMMERTOWN FS/SB,TAMOSHANTER DR & HAMMERTOWN DR,38.015871,-121.299327,,,,
2617,3041,TAM O SHANTER DR @ COMCAST CABLE SB,TAMOSHANTER & COMCAST CABLE,38.012615,-121.29752,,,,
2618,3042,WEST LN & SWAIN RD FS FS/SB,,38.010707,-121.294196,,,,
2619,3043,WEST LN & ACCESS ST FS/SB,,38.005907,-121.292331,,,,
2622,3045,WEST LN  & BIANCHI RD FS/SB,WEST LANE & BIANCHI RD,37.997611,-121.289027,,,,
2623,3046,WEST LN & ENTERPRISE ST FS/SB,WEST LANE & ENTERPRISE ST,37.990126,-121.286161,,,,
2624,3047,CALIFORNIA ST & SONOMA NS/SB,CALIFORNIA ST & SONOMA ST,37.98088,-121.293294,,,,
2625,3048,CALIFORNIA ST & ARCADE ST NS/SB,,37.97824,-121.292166,,,,
2626,3049,CALIFORNIA ST & HAMPTON ST FS/SB,,37.975545,-121.29105,,,,
2627,3050,CALIFORNIA ST & WYANDOTTE ST FS/SB,,37.972869,-121.289956,,,,
2629,3052,CALIFORNIA ST & VINE ST FS/SB,,37.966419,-121.288045,,,,
2630,3053,CALIFORNIA ST & MAGNOLIA ST FS/SB,,37.964394,-121.287516,,,,
2632,3055,CALIFORNIA ST & FLORA ST NS/SB,,37.96153,-121.286722,,,,
2633,3056,CALIFORNIA ST & OAK ST NS/SB,,37.959615,-121.286186,,,,
2634,3057,CALIFORNIA ST & FREMONT ST NS/SB,,37.95863,-121.285927,,,,
2635,3058,SAN JOAQUIN ST & WEBER AV FS/SB,SAN JOAQUIN ST & WEBER AVE,37.954098,-121.287419,,,,
2636,3059,SAN JOAQUIN ST & MARKET ST FS/SB,,37.952162,-121.286889,,,,
2637,3060,LEVER BLVD & 8TH ST FS/SB,,37.926596,-121.29742,,,,
2638,3061,CHICAGO AV &  COLORADO AV FS/ EB,CHICAGO AVE & COLORADO AVE,37.923098,-121.297705,,,,
2639,3062,MANTHEY RD & CAROLYN WESTON BLVD SB,,37.911822,-121.294334,,,,
2642,3065,FREEDOM RD & MATTHEWS RD SB,FREEDOM RD & MATHEWS RD,37.882319,-121.282058,,,,
2643,3066,MATHEWS RD & BRIGHT RD FS/WB,,37.882468,-121.292044,,,,
2644,3067,MATHEWS RD & ENDOW RD FS/WB,,37.882565,-121.295361,,,,
2645,3068,MATHEWS RD & FREEDOM RD FS/EB,,37.882345,-121.286833,,,,
2646,3069,MATHEWS RD & MANTHEY RD NS/EB,,37.88223,-121.281496,,,,
2647,3070,CAROLYN WESTON & MANTHEY FS/EB,CAROLYN WESTON & MANTHEY RD,37.912366,-121.294403,,,,
2649,3072,CALIFORNIA ST & ARCADE ST FS/NB,,37.979524,-121.292695,,,,
2653,7030,ESSEX ST & EL DORADO ST FS EB,,37.987158,-121.302125,,,,
2654,3105,ESSEX ST & SUTTER ST NS/EB,,37.988088,-121.298286,,,,
2655,3146,LINCOLN ST & WASHINGTON ST FS/NB,,37.949517,-121.297067,,,,
2658,3157,LINCOLN ST & 4TH ST FS/SB,,37.932293,-121.292181,,,,
2659,3165,SAN JOAQUIN ST & OAK ST FS/NB,,37.959174,-121.288766,,,,
2660,3166,SAN JOAQUIN ST & POPLAR ST FS/NB,,37.962073,-121.289572,,,,
2661,3167,SAN JOAQUIN ST & VINE ST FS/NB,,37.966008,-121.290642,,,,
2662,3168,HARDING WY & CENTER ST FS/WB,HARDING WAY & CENTER ST,37.967264,-121.295423,,,,
2663,3169,HARDING WY & VAN BUREN ST NS/WB,HARDING WAY & VAN BUREN ST,37.966468,-121.299985,,,,
2664,3170,HARDING WY & HARRISON ST NS/WB,HARDING WAY & HARRISON ST,37.966012,-121.302869,,,,
2665,3171,WILLOW ST & YOSEMITE ST NS/WB,,37.964101,-121.307763,,,,
2666,3172,WILLOW ST & SAN JOSE ST NS/WB,,37.964011,-121.309636,,,,
2667,3173,WILLOW ST & ORANGE ST NS/WB,,37.963688,-121.311359,,,,
2668,3174,PERSHING AV & ELM ST NS/NB,PERSHING AVE & ELM ST,37.964865,-121.313497,,,,
2669,3175,COUNTRY CLUB BLVD & GRANGE AV FS/WB,COUNTRY CLUB BLVD & GRANGE AVE,37.96836,-121.31943,,,,
2670,3176,COUNTRY CLUB BLVD & MISSION RD NSWB,CIOUNTRY CLUB BLVD & MISSION RD,37.967442,-121.323134,,,,
2671,3177,COUNTRY CLUB BLVD & FRANKLIN AV WB,COUNTRY CLUB BLVD & FRANKLIN AVE,37.965972,-121.329161,,,,
2672,3178,COUNTRY CLUB BLVD & DELAWARE AV WB,COUNTRY CLUB BLD & DELAWARE AVE,37.965515,-121.331033,,,,
2673,3179,COUNTRY CLUB BLVD & PLYMOUTH RD WB,,37.96471,-121.334296,,,,
2674,3180,OREGON ST & MICHIGAN AV FS/SB,OREGON ST & MICHIGAN ST,37.965354,-121.344271,,,,
2675,3181,MICHIGAN AV & RYDE AV FS/SB,MICHIGAN AVE & RYDE AVE,37.967215,-121.337206,,,,
2676,3182,COUNTRY CLUB BLVD & OREGON AV FS/EB,COUNTRY CLUB BLVD & OREGON AVE,37.962634,-121.342463,,,,
2677,3183,ALPINE AV & MISSION RD FS/EB,ALPINE AVE & MISSION AVE,37.973397,-121.325629,,,,
2678,3184,ALPINE AV & GRANGE AV FS/EB,ALPINE AVE & GRANGE AVE,37.974372,-121.321895,,,,
2679,3185,ALPINE AV & PERSHING AV NS/EB,ALPINE AVE & PERSHING AVE,37.9754,-121.317563,,,,
2680,3186,PERSHING AV & BROOKSIDE RD FS/NB,PERSHING AVE & BROOKSIDE RD,37.982002,-121.318902,,,,
2681,3187,ROSE MARIE LN & PERSHING AV FS/WB,ROSE MARIE LN & PERSHING AVE,37.986578,-121.320849,,,,
2682,3188,ROSE MARIE LN & ANGELICO CIR FS/WB,ROSEMARIE LN & ANGELICO CIR,37.984056,-121.330973,,,,
2683,3189,ROSE MARIE LN & PICCARDO CIR FS/WB,ROSEMARIE LN & PICCARDO CIR,37.983644,-121.3328,,,,
2687,3195,MARCH LN & PERSHING AV FS/EB,MARCH LN & PERSHING AVE,37.988969,-121.321759,,,,
2691,3199,MARCH LN & PACIFIC AV FS/WB,MARCH LN & PACIFIC AVE,37.991409,-121.31283,,,,
2692,3200,MARCH LN & PRECISSI LN NS/WB,,37.990631,-121.31568,,,,
2693,3201,MARCH LN & PERSHING AV FS/WB,MARCH LN & PERSHING AVE,37.98904,-121.32215,,,,
2694,3202,MARCH LN & VENETIAN DR FS/WB,,37.988109,-121.325988,,,,
2695,3203,MARCH LN & GROUSE RUN DR FS/WB,,37.98726,-121.329298,,,,
2696,3204,MARCH LN & QUAIL LAKES PLAZA NS/WB,,37.985739,-121.335135,,,,
2697,7049,DAVINCI DR & MARCH LN FS SB,,37.984621,-121.339893,,,,
2698,3205,ROSE MARIE LN & LORENZO LN NS/EB,ROSEMARIE LN & LORENZO LN,37.982356,-121.337177,,,,
2699,3206,ROSE MARIE LN & VENEZIA BLVD NS/EB,ROSEMARIE LN & VENEZIA BLVD,37.983473,-121.334639,,,,
2700,3207,ROSE MARIE LN & ANGELICO CIR NS/EB,ROSEMARIE LN & ANGELICO CIR,37.98385,-121.331639,,,,
2702,3208,PERSHING AV & ROSE MARIE LN FS/SB,PERSHING AVE & ROSEMARIE LN,37.986507,-121.320722,,,,
2703,3209,PERSHING AV & BROOKSIDE RD FS/SB,PERSHING AVE & BROOKSIDE RD,37.981957,-121.318914,,,,
2704,3210,ALPINE AV & PERSHING AV FS/WB,ALPINE AVE & PERSHING AVE,37.975391,-121.317793,,,,
2705,3211,ALPINE AV & GRANGE AV FS/WB,ALPINE AVE & GRANGE AVE,37.974345,-121.322067,,,,
2706,3212,ALPINE AV & MISSION RD NS/WB,ALPINE AVE & MISSION AVE,37.973451,-121.325514,,,,
2707,7052,ALPINE AV & FRANKLIN AV NS WB,ALPINE AVE & FRANKLIN AVE,37.972002,-121.331339,,,,
2708,7044,COUNTRY CLUB BLVD & FONTANA ARR EB,COUNTRY CLUB BLVD & FONTANA AVE,37.964052,-121.336736,,,,
2709,3213,COUNTRY CLUB BLVD & PLYMOUTH RD EB,,37.964473,-121.335105,,,,
2710,3214,COUNTRY CLUB BLVD & CLIPPER LN FSEB,,37.965533,-121.330815,,,,
2711,3215,COUNTRY CLUB BLVD & CARLTON AV FSEB,COUNTRY CLUB BLVD & CARLTON AVE,37.966213,-121.328069,,,,
2712,3216,COUNTRY CLUB BLVD & MISSION RD NSEB,COUTNRY CLUB BLVD & MISSION RD,37.967385,-121.323278,,,,
2713,3217,COUNTRY CLUB BLVD & GRANGE AV FSEB,COUNTRY CLUB BLVD & GRANGE AVE,37.968431,-121.319097,,,,
2714,3218,PERSHING AV & ELM ST NS/SB,PERSHING AVE & ELM ST,37.964919,-121.313532,,,,
2715,3219,WILLOW ST & ORANGE ST NS/EB,,37.963662,-121.311393,,,,
2716,3220,WILLOW ST & SAN JOSE ST NS/EB,,37.963966,-121.309681,,,,
2717,3221,WILLOW ST & YOSEMITE ST FS/EB,,37.964074,-121.307786,,,,
2718,3222,BAKER ST & HARDING WY NS/NB,BAKER ST & HARDING WAY,37.965529,-121.305431,,,,
2719,3223,HARDING WY & LINCOLN ST FS/EB,HARDING WAY & LINCOLN ST,37.966191,-121.30157,,,,
2720,3224,HARDING WY & MONROE ST NS/EB,HARDING WAY & MONROE ST,37.966585,-121.299054,,,,
2721,7055,HARDING WY & CENTER ST FS EB,,37.967291,-121.295067,,,,
2722,3225,SAN JOAQUIN ST & VINE ST FS/SB,,37.965954,-121.290677,,,,
2723,3226,SAN JOAQUIN ST & MAGNOLIA ST FS/SB,,37.963974,-121.290113,,,,
2724,3227,SAN JOAQUIN ST & FLORA ST NS/SB,,37.961128,-121.289307,,,,
2725,3228,SAN JOAQUIN ST & OAK ST NS/SB,,37.959183,-121.288789,,,,
2726,3229,SAN JOAQUIN ST & LINDSAY ST NS/SB,,37.95722,-121.288248,,,,
2727,7032,SAN JOAQUIN ST & TAYLOR ST NS SB,,37.945238,-121.284991,,,,
2731,3233,FREMONT ST & HARRISON ST FS/WB,,37.956172,-121.300311,,,,
2732,3234,FREMONT ST & BAKER ST FS/WB,,37.955743,-121.302862,,,,
2733,3235,FREMONT ST & YOSEMITE ST NS/WB,,37.955304,-121.305424,,,,
2734,3236,FREMONT ST & ARGONAUT ST NS/WB,,37.954875,-121.30802,,,,
2735,3237,PICARDY DR & PERSHING AV FS/WB,PICARDY DR & PERSHING AVE,37.959281,-121.312114,,,,
2736,3238,PICARDY DR & ARGONNE DR FS/WB,,37.959011,-121.316709,,,,
2737,3239,MT DIABLO AV & BUENA VISTA ST NS/WB,MT DIABLO AVE & BUENA VISTA,37.959009,-121.31872,,,,
2738,3240,MT DIABLO AV & SAN JUAN AV FS/WB,MT DIABLO AVE & SAN JUAN,37.958481,-121.321925,,,,
2739,3241,MT DIABLO AVE & CARLTON AV FS/WB,MT DIABLOA VE & CARLTON,37.957872,-121.325406,,,,
2740,3242,MT DIABLO AV & I-5 MB/WB,MT DIABLO AVE & I-5,37.957201,-121.329324,,,,
2741,3243,MT DIABLO AV & KINGSLEY AV NS/WB,MT DIABLO AVE & KINGSLEY,37.956112,-121.336004,,,,
2742,3244,OCCIDENTAL AV & MT DIABLO AV FS/NB,OCCIDENTAL AVE & MT DIABLO,37.955499,-121.339697,,,,
2743,3245,OCCIDENTAL AV & TOYON DR NS/NB,,37.958335,-121.34047,,,,
2745,3190,ROSE MARIE LN & VENEZIA BLVD FS/WB,ROSEMARIE LN & VENEZIA BLVD,37.983545,-121.334466,,,,
2746,3191,ROSE MARIE LN & LORENZO LN NS/WB,ROSEMARIE LN & LORENZO LN,37.982401,-121.337074,,,,
2748,3247,MT DIABLO AV & WILSHIRE AV NS/EB,MT DIABLO AVE & WILSHIRE AVE,37.957362,-121.328186,,,,
2749,3248,MT DIABLO AV & CARLTON AV NS/EB,MT DIABLO AVE & CARLTON AVE,37.957855,-121.325395,,,,
2751,3250,MT DIABLO AV & SAN JUAN AV NS/EB,MT DIABLO AVE & SAN JUAN AVE,37.958454,-121.321856,,,,
2752,3251,MT DIABLO AV & BUENA VISTA AV NSEB,MT DIABLO AVE & BUENA VISTA,37.958956,-121.318789,,,,
2753,3252,PICARDY ST & ACACIA ST NS/EB,,37.958663,-121.316031,,,,
2754,3253,PICARDY DR & PERSHING AV NS/EB,PICARDY DR & PERSHING AVE,37.95929,-121.31201,,,,
2755,3254,FREMONT ST & ARGONAUT ST NS/EB,,37.95483,-121.3081,,,,
2756,3255,FREMONT ST & YOSEMITE ST NS/EB,,37.955269,-121.305492,,,,
2757,3256,FREMONT ST & BAKER ST NS/EB,,37.955644,-121.303298,,,,
2758,3257,FREMONT ST & HARRISON ST NS/EB,,37.956136,-121.300334,,,,
2759,3258,FREMONT ST & COMMERCE ST NS/EB,,37.957209,-121.294222,,,,
2760,3259,CENTER ST & WEBER POINT MB/SB,,37.953864,-121.291463,,,,
2761,3261,PACIFIC AV & KNOLES WY FS/NB,PACIFIC AVE & KNOLES WY,37.980589,-121.307235,,,,
2762,7068,PACIFIC AV & YOKUTS AV ARRIVE SB,PACIFIC AVE & YOKUTS AVE,37.996583,-121.31488,,,,
2764,3262,PACIFIC AV & KNOLES WY FS/SB,PACIFIC AVE & KNOLES WAY,37.980571,-121.307258,,,,
2766,3264,QUAIL LAKES DR & MARCH LN FS/NB,,37.984969,-121.339859,,,,
2767,3265,QUAIL LAKES & MALLARD CREEK NS/NB,QUAIL LAKES DR & MALLARD CREEK,37.988724,-121.340311,,,,
2768,3266,QUAIL LAKES  & ROUND VALLEY NS/NB,QUAIL LAKES DR & ROUND VALLEY,37.990143,-121.340853,,,,
2769,3267,QUAIL LAKES & GRIZZLY HOLLOW FS/NB,QUAIL LAKES DR & GRIZZLY HOLLOW,37.993818,-121.342306,,,,
2770,3268,QUAIL LAKES & PHEASANT RUN FS/NB,QUAIL LAKES DR & PHEASANT RUN,37.995417,-121.338917,,,,
2771,3269,QUAIL LAKES & GROUSE RUN NS/NB,,37.995527,-121.335399,,,,
2772,3270,QUAIL LAKES & PASSERO NS/NB,,37.997358,-121.33178,,,,
2773,3271,QUAIL LAKES & TREE SWALLOW FS/NB,QUAIL LAKES DR & TREE SWALLOW,37.997414,-121.328745,,,,
2774,3272,QUAIL LAKESR & PERSHING NS/NB,QUAIL LAKES & PERSHING AVE,37.998022,-121.325424,,,,
2775,3273,ROBINHOOD DR & STRATFORD WEST NS/NB,ROBINHOOD DR & STRATFORD CIR,37.999006,-121.32239,,,,
2776,3274,ROBINHOOD DR & STRATFORD EAST FS/EB,ROBINHOOD DR & STRATFORD CIR,37.999748,-121.319976,,,,
2777,3275,PACIFIC AV & ROBINHOOD DR FS/SB,PACIFIC AVE & ROBINHOOD,38.000517,-121.316436,,,,
2778,3276,ROBINHOOD DR & PACIFIC AV ARR WB,ROBINHOOD DR & PACIFIC AVE,38.000177,-121.317861,,,,
2779,3277,ROBINHOOD DR & STRATFORD EAST NS/WB,,37.999774,-121.319988,,,,
2780,3278,ROBINHOOD DR & STRATFORD WEST NS/WB,,37.99905,-121.322344,,,,
2781,7074,ROBINHOOD DR & PERSHING AV NS WB,ROBINHOOD DR & PERSHING AVE,37.998076,-121.32532,,,,
2782,3279,QUAIL LAKES DR & SILVER CREEK FS/SB,,37.997468,-121.327895,,,,
2783,3280,QUAIL LAKES DR & PASSERO WY FS/SB,,37.997394,-121.331815,,,,
2784,3281,QUAIL LAKES DR & GROUSE RUN DR NSSB,,37.99558,-121.335284,,,,
2785,3282,QUAIL LAKES DR & MEADOW LAKE FS/SB,QUAIL LAKES & MEADOW LAKES,37.995149,-121.34025,,,,
2786,3283,QUAIL LAKES DR & GRIZZY HOLLOW NSSB,QUAIL LAKES & GRIZZLY HOLLOW,37.993853,-121.342329,,,,
2787,3284,QUAIL LAKES DR & ROUND VALLEY NS/SB,,37.990263,-121.340915,,,,
2788,3285,QUAIL LAKES DR @ SHOPPING CTR SB,QUAIL LAKES & QUAIL LAKES SHOPPING CTR,37.985959,-121.340009,,,,
2789,3286,MARCH LN @ I-5 76 GAS STATION MB/WB,,37.984563,-121.344709,,,,
2790,3287,MARCH LN & DEER PARK DR NS/WB,,37.984076,-121.352053,,,,
2792,3293,BEN HOLT DR & PLYMOUTH RD FS/EB,BEN  HOLT & PLYMOUTH,38.00484,-121.349678,,,,
2793,3294,BEN HOLT DR & BELMONT PL FS/EB,,38.00505,-121.343332,,,,
2794,3295,BEN HOLT DR ALEXANDRIA PL NS/EB,,38.005687,-121.338745,,,,
2795,3296,BEN HOLT DR & HARRISBURG PL FS/EB,,38.00718,-121.333964,,,,
2796,3298,PERSHING AV & SWAIN RD NS/SB,,38.002447,-121.327107,,,,
2797,3297,PERSHING AV & DOUGLAS RD FS/SB,,38.005203,-121.32819,,,,
2798,3299,PERSHING AV & LONGVIEW AV NS/SB,,38.000957,-121.326473,,,,
2801,3291,DRIFTWOOD PL & BROOKSIDE RD FS/EB,,37.989472,-121.353692,,,,
2802,3292,DRIFTWOOD PL & BIKE TRAIL MB/EB,,37.989823,-121.350175,,,,
2804,3301,PERSHING AV & DOUGLAS RD NS/NB,,38.005221,-121.328179,,,,
2806,3303,FREMONT ST & MADISON ST NS/WB,,37.957114,-121.294814,,,,
2808,7085,HOLMAN RD & WINDFLOWER FS NB,HOLMAN RD & WINDFLOWER LN,38.010177,-121.273212,,,,
2811,3323,HAMMERTOWN DR & MONTAUBAN AV FS/WB,,38.01657,-121.288967,,,,
2813,3355,FREMONT ST & EASTLAND PLAZA MB/EB,,37.961105,-121.27044,,,,
2814,3356,FREMONT ST & E ST FS/EB,,37.963765,-121.260179,,,,
2815,3357,FREMONT ST & FILBERT ST FS/EB,,37.965488,-121.256088,,,,
2817,7098,FILBERT ST & POPLAR ST FS NB,,37.968967,-121.257686,,,,
2820,7096,WILSON WY & LINDSAY ST FS SB,,37.959793,-121.272634,,,,
2821,3363,SANGUINETTI LN & WILSON WY NS/SB,,37.983571,-121.271388,,,,
2822,3364,FUNSTON AV & JERSEY AV FS/SB,FUNSTON AVE & JERSEY AVE,37.98027,-121.271536,,,,
2823,3389,FREMONT ST & E ST FS/WB,"FREMONT ST & ""E"" ST",37.963855,-121.260259,,,,
2825,3382,CALIFORNIA ST & WASHINGTON ST FS/SB,,37.951591,-121.283983,,,,
2826,3383,CALIFORNIA ST & HAZELTON AV FS/SB,CALIFORNIA ST & HAZELTON AVE,37.947589,-121.282941,,,,
2827,3384,CALIFORNIA ST & JEFFERSON ST FS/SB,,37.942643,-121.281566,,,,
2828,3385,MLK BLVD & SAN JOAQUIN ST NS/WB,,37.939493,-121.283357,,,,
2829,3386,CENTER ST & 1ST ST NS/SB,,37.937681,-121.286848,,,,
2830,3387,CENTER ST & 3RD ST FS/SB,,37.935013,-121.285411,,,,
2831,3388,EL DORADO & 5TH ST FS/SB,EL DORADO ST & 5TH ST,37.932926,-121.284365,,,,
2833,3391,FREMONT ST & GOLDEN GATE AV FS/EB,FREMONT ST & GOLDEN GATE AVE,37.967834,-121.250676,,,,
2835,3413,SWAIN RD & GETTYSBURG PL FS/WB,,38.003798,-121.321244,,,,
2838,3442,SWAIN RD & PORTER WY NS/SB,,37.999945,-121.344808,,,,
2840,3451,HERNDON PL @ 6731 HERNDON PL FS/SB,,38.005182,-121.356416,,,,
2842,7114,BEN HOLT DR & VICKSBURG PL FS EB,,38.008861,-121.328079,,,,
2843,7115,EL DORADO ST & HAMMER LN FS NB,,38.021047,-121.315097,,,,
2846,7121,DOUGLAS RD & PACIFIC AV ARR WB,DOUGLAS RD & PACIFIC AVE,38.008099,-121.320271,,,,
2848,3522,WIGWAM DR & CHEROKEE RD FS/SB,,37.986589,-121.257274,,,,
2852,7016,MT DIABLO AV & RYDE AV FS EB,MT DIABLO AVE & RYDE AVE,37.956565,-121.333115,,,,
2854,7021,MALL TRANSFER ARR (SOUTH),,37.996968,-121.313041,,,,
2855,3633,CORDOVA LN & KERMIT LN NS EB,,38.016208,-121.30364,,,,
2856,3638,HOLIDAY DR & BANBURY DR FS SB,,38.003692,-121.298837,,,,
2857,3639,HOLIDAY DR & YORKSHIRE DR FS SB,,38.002363,-121.298157,,,,
2858,3644,POCK LN & 8TH ST FS SB,,37.935866,-121.247575,,,,
2862,3648,B ST & 8TH ST FS NB,"""B"" ST & 8TH ST",37.934277,-121.255489,,,,
2863,3656,STANISLAUS ST & MINER AV FS SB,STANISLAUS ST & MINER AVE,37.956829,-121.282709,,,,
2864,3660,PERSHING AV & VINE ST NS NB,PERSHING AVE & VINE ST,37.961622,-121.312592,,,,
2865,7144,WILSON WY & JACKSON ST FS SB,WISLON WY & JACKSON ST,37.943868,-121.268344,,,,
2867,3678,POCK ST & 11TH ST FS NB,POCK LN & 11ST ST,37.931851,-121.245956,,,,
2868,7146,8TH ST & NIGHTINGALE AV FS EB,8TH ST & NIGHTINGALE AVE,37.936909,-121.244198,,,,
2870,3624,HOLIDAY DR & HOLIDAY CT FS NB,,38.003121,-121.298549,,,,
2871,7150,MAIN ST & FILBERT ST FS EB,,37.954843,-121.251768,,,,
2872,3711,CARDINAL AV & ARDELLE AV NS SB,CARDINAL AVE & ARDELLE AVE,37.963182,-121.221409,,,,
2874,7155,DTC WEBER AV DEPART,,37.954521,-121.285908,,,,
2875,7154,FREMONT ST & EASTLAND PLAZA MB WB,,37.961064,-121.270997,,,,
2877,3728,HAMMER LN & KELLEY DR FS EB,,38.021243,-121.355553,,,,
2878,3730,HAMMER LN & KELLEY DR FS WB,,38.021412,-121.356232,,,,
2881,3729,HAMMER LN & RICHLAND WY EB/FS,,38.021228,-121.351413,,,,
2889,3737,DON AV & PORTOLA AV FS NB,DON AVE & PORTOLA AVE,38.026863,-121.345475,,,,
2890,3740,A.G. SPANOS BLVD & THORNTON RD FS W,,38.054998,-121.351977,,,,
2891,3741,A.G. SPANOS BLVD & STONEY GORGE DR,,38.053977,-121.357383,,,,
2892,3742,A.G. SPANOS BLVD & BANYON DR FS SB,,38.050977,-121.358977,,,,
2893,3743,IRON CANYON DR & FRESHWATER PL FS W,,38.049294,-121.365348,,,,
2894,7177,SCOTT CREEK & RIDGEVIEW CIR FS WB,SCOTT CREEK DR & RIDGEVIEW CIR,38.056022,-121.382709,,,,
2895,3744,SCOTT CREEK & TRINITY PKWY FS WB,SCOTT CREEK DR & TRINITY PKWY,38.053914,-121.376274,,,,
2896,3745,MOKELUMNE CIR & HENNESSEY DR FS SB,,38.053122,-121.383256,,,,
2897,3746,MOKELUMNE CIR & MELONES WY FS SB,,38.050059,-121.385574,,,,
2898,3747,MOKELUMNE CIR & HAVENCREST CT FS SB,,38.046705,-121.384498,,,,
2899,3748,MOKELUMNE CIR & PASADENA FS SB,MOKELUMNE CIR & PASADENA DR,38.04856,-121.38579,,,,
2900,7178,COSUMNES DR & TRINITY PKWY NS EB,,38.048223,-121.375114,,,,
2901,3749,IRON CANYON DR & FRESHWATER PL,,38.049286,-121.365084,,,,
2902,3750,A.G. SPANOS BLVD & BANYON DR,,38.051218,-121.358828,,,,
2903,3751,A.G. SPANOS BLVD & STONEY GORGE DR,,38.053977,-121.35713,,,,
2904,3752,A.G. SPANOS BLVD & SISKIYOU LN,,38.054577,-121.35369,,,,
2907,7326,THORNTON RD & WHISTLER WY FS SB,,38.04928,-121.351037,,,,
2908,3784,DON AV & WAGNER HEIGHTS RD FS SB,DON AVE & WAGNER HEIGHTS RD,38.033777,-121.345967,,,,
2909,3785,DON AV  & WAUDMAN AV FS SB,DON AVE & WAUDMAN AVE,38.029896,-121.345502,,,,
2910,3786,DON AV & MASEILLE WY FS SB,DON AVE & MASEILLE WY,38.026453,-121.345509,,,,
2912,7186,PERSHING AV & BEN HOLT DR NS SB,PERSHING AVE & BEN HOLT DR,38.008566,-121.329286,,,,
2916,7193,COMMERCE  & STEAMBOAT LANDING MB SB,COMMERCE  ST & STEAMBOAT LANDING,37.951393,-121.292151,,,,
2917,3808,LATHROP RD & CAMBRIDGE DR NS EB,,37.826312,-121.286221,,,,
2924,3829,MICHIGAN AV & KIRK ST NS WB,MICHIGAN AVE & KIRK ST,37.965873,-121.342479,,,,
2933,3838,KELLEY DR & HAMMER LN FS SB,,38.021224,-121.35614,,,,
2935,3859,LINCOLN ST & SONORA ST FS NB,,37.947492,-121.296503,,,,
2940,3891,INDUSTRIAL DR & 99 FRONTAGE FS WB,INDUSTRIALRD & HWY 99 FRNTG,37.915681,-121.228812,,,,
2942,3897,INDUSTRIAL DR & MINDEN LN FS EB,,37.915022,-121.231396,,,,
2943,3898,INDUSTRIAL DR & 99 FRONTAGE RD NS E,INDUSTRIAL DR & HWY 99 FRNTG RD,37.915913,-121.227951,,,,
2947,3913,THORNTON RD & WAGNER HEIGHTS RD NB,,38.035825,-121.339287,,,,
2964,7249,TOGNINALI LN & 99 FRONTAGE FS WB,TOGNINALI LN & HWY 99 FRONTAGE,37.91834,-121.228789,,,,
2966,3961,HOLMAN RD & SNOW CREEK,,38.034776,-121.269596,,,,
2974,3971,EAST & CARLTON FS SB,EAST ST & CARLTON ST,37.74611,-121.421181,,,,
2985,3972,GRIGSBY PL & POLK WY FS SB,,38.001474,-121.352789,,,,
2988,7258,DTC C&S DPT MB EB,,37.955436,-121.285593,,,,
2990,7301,ROBINHOOD & PACIFIC ARR FS EB,ROBINHOOD DR & PACIFIC AVE,38.000642,-121.316068,,,,
2996,7304,MYRTLE ST & ORO AVE FS WB,,37.965772,-121.238909,,,,
2998,4001,HAMMER LN & ALEXANDRIA PL FS EB,,38.021106,-121.335969,,,,
2999,4002,HAMMER LN & AMBER WY FS EB,,38.021002,-121.332082,,,,
3000,4003,HAMMER LN & EL DORADO ST FS EB,,38.020887,-121.315028,,,,
3001,4004,HAMMER LN & LAN ARK DR FS EB,,38.020836,-121.309393,,,,
3002,4005,HAMMER LN & TAM O SHANTER FS EB,HAMMER LN & TAM O'SHANTER DR,38.020849,-121.300412,,,,
3003,3977,HAMMER LN & ETNA ST FS WB,,38.021063,-121.319513,,,,
3004,3978,HAMMER LN & EL DORADO ST FS WB,,38.021012,-121.315304,,,,
3005,3979,HAMMER LN & MISTY LN FS WB,,38.021073,-121.331576,,,,
3010,7526,HOLMAN RD & WINDFLOWER FS SB,,38.010043,-121.2732,,,,
3011,7263,EL DORADO ST & IRIS AVE FS SB,,38.022746,-121.315688,,,,
3013,7708,CAROLYN WESTON & MANTHEY FS WB,CAROLYN WESTON BLVD & MANTHEY BLVD,37.912125,-121.295012,,,,
3016,4024,HAMMER LN & ETNA ST FS EB,,38.02092,-121.319041,,,,
3017,7019,WEST LN & STADIUM FS NB,WEST LANE & STADIUM DR,37.985638,-121.284308,,,,
3018,7175,THORNTON RD & WHISTLER FS NB,THORNTON RD & WHISTLER WY,38.049485,-121.350899,,,,
3023,7781,PACIFIC AVE & SONOMA AVE FS NB,,37.977824,-121.30498,,,,
3025,7783,KIRK ST & ALPINE AVE NS NB,,37.968906,-121.343769,,,,
3028,7784,MLK BLVD & FRENCH CAMP TRPK FSEB,,37.938108,-121.289984,,,,
3029,4008,ORO & GUERNSEY AVE NS NB,ORO AVE & GUERNSEY AVE,37.952308,-121.233546,,,,
3030,7766,11TH ST & D ST NS WB,"11ST ST & ""D"" ST",37.931333,-121.249941,,,,
3031,7769,10TH ST & ANNE ST FS WB,,37.930146,-121.261588,,,,
3032,7765,11TH ST & D ST FS EB,"11TH ST & ""D"" ST",37.93128,-121.250056,,,,
3037,7780,ALPINE AVE & SANGUINETTI LN FS WB,,37.986712,-121.273228,,,,
3039,7776,MONTAUBAN AVE & MARCH LN FS NB,,38.003786,-121.284672,,,,
3041,4020,MONTAUBAN AVE & SWAIN RD FS NB,,38.012484,-121.290012,,,,
3042,7778,MONTAUBAN AVE & HAMMERTOWN DR FS NB,,38.016597,-121.28891,,,,
3045,4032,HAMMER LN & WEST LN FRNTG FS EB,HAMMER LN & WEST LANE FRTG,38.020825,-121.291752,,,,
3046,7779,MONTAUBAN AVE & HAMMERTOWN DR FS SB,,38.016499,-121.288944,,,,
3048,4022,LORRAINE AVE & SWAIN RD FS SB,,38.01302,-121.284999,,,,
3049,7777,BIANCHI RD & MARCH LN FS SB,,38.003411,-121.284707,,,,
3050,4023,ALPINE AVE & EL PINAL DR FS EB,,37.986096,-121.275366,,,,
3051,7787,CHEROKEE RD & MYRAN AV NS SB,CHEROKEE RD & MYRAN AVE,37.983483,-121.260388,,,,
3056,7789,ROSEMARIE LN & MCGAW ST FS EB,,37.984709,-121.328261,,,,
3057,7767,99 FRONTAGE & MARFARGOA RD NS NB,HWY 99 FRNTG RD & MARFARGOA RD,37.913664,-121.226126,,,,
3060,4016,99 FRONTAGE & MUNFORD FS NB,HWY 99 FRNTG & MUNFORD AVE,37.928396,-121.232036,,,,
3064,7791,MEADOW AVE & HAMMER LN FS SB,,38.021037,-121.345445,,,,
3069,4045,DON AVE & SANTIAGO AVE FS SB,,38.023339,-121.345471,,,,
3071,7792,FARM & GERTRUDE MB EB,FARM RD & GERTRUDE AVE,37.969118,-121.238621,,,,
3072,4047,HAMMER & MONTAUBAN FS EB,HAMMER LN & MONTAUBAN,38.020862,-121.289648,,,,
3073,4050,HAMMER & MONTAUBAN FS WB,HAMMER LN & MONTAUBAN AVE,38.021004,-121.290028,,,,
3074,4048,HAMMER & ALEXANDRIA FS WB,HAMMER LN & ALEXANDRIA,38.02124,-121.33613,,,,
3077,3982,PARK ST & CENTER ST FS WB,,37.959458,-121.293006,,,,
3078,4009,ORO  & GUERSEY AVE FS SB,ORO AVE & GUERNSEY AVE,37.952308,-121.233581,,,,
3079,7794,MORADA LN & DIAMOND BAR MB EB,,38.037052,-121.261039,,,,
3080,3983,INSPIRATION DR & VERNACCIA LN FS WB,,38.030851,-121.261809,,,,
3081,3984,INSPIRATION DR & MARANATHA DR FS WB,INSPIRATION DR & MARANTHA DR,38.031038,-121.264454,,,,
3082,3985,INSPIRATION DR & RIETI LN FS WB,,38.031386,-121.267249,,,,
3083,7795,HOLMAN RD & INSPIRATION DR FS SB,,38.031439,-121.269756,,,,
3084,7796,HOLMAN RD & INSPIRATION DR FS NB,,38.031626,-121.26948,,,,
3085,3987,MARCH & WEBER RANCH PKWY FS EB,MARCH LN & WEBER RANCH PKWY,38.002152,-121.289788,,,,
3087,4055,HOLMAN & BRYANT FS NB,HOLMAN RD & BRYANT DR,38.027264,-121.269502,,,,
3088,3986,MARCH & WEBER RANCH PKWY FS WB,,38.002161,-121.290547,,,,
3089,4056,KNICKERBOCKER & TAMOSHANTER FS EB,KNICKERBOCKER DR & TAM O'SHANTER,38.022544,-121.300298,,,,
3093,7339,HAMMERTOWN @ KAISER EB,HAMMERTOWN LN & KAISER MED OFF,38.016541,-121.295637,,,,
3099,4060,HARLAN & LOUISE AV FS NB,HARLAN RD & LOUSIE AVE,37.812141,-121.291512,,,,
3100,4061,HARLAN & LOUISE AV NS SB,HARLAN RD & LOUISE AVE,37.812043,-121.291547,,,,
3105,4062,GRANT LINE & MACARTHUR FS WB,GRANT LINE RD & MACARTHUR DR,37.754282,-121.415425,,,,
3106,7803,HARLAN RD & LATHROP RD FS NB,,37.826534,-121.288217,,,,
3107,3990,WEST LANE & HAMMER LANE FS SB,WEST LANE & HAMMER LN,38.020717,-121.294938,,,,
3114,7807,MARCH LN & FRED RUSSO FS EB,,38.005555,-121.276154,,,,
3115,7808,MARCH LN & FRED RUSSO FS WB,,38.005546,-121.276614,,,,
3117,7810,MAIN & NORTHGATE NS NB,MAIN ST & NORTHGATE DR,37.817399,-121.217145,,,,
3118,7811,MAIN & NORTHGATE FS SB,MAIN ST & NORTHGATE DR,37.818416,-121.217385,,,,
3120,7814,DAVIS RD & WATERBURY DR FS SB,,38.054798,-121.333154,,,,
3122,7813,DAVIS & ST. MORITZ CIR FS NB,DAVIS RD & ST. MORITZ CIR,38.05197,-121.332783,,,,
3134,4078,O'DELL AVE & DOWNING FS NB,O'DELL AVE & DOWNING AVE,37.914056,-121.281796,,,,
3135,4077,O'DELL AVE & DOWNING AVE FS SB,O;DELL AVE & DOWNING AVE,37.913993,-121.281796,,,,
3136,4079,O'DELL AVE & WAIT AVE FS SB,,37.91187,-121.280911,,,,
3137,4081,DAVIS RD & WHISTLER WY FS SB,,38.047973,-121.332422,,,,
3138,4082,DAVIS RD & THERESA CIR NS NB,,38.038275,-121.331836,,,,
3139,4083,DAVIS RD & CHAPARRAL WY FS NB,DAVIS RD & CHAPARRAL WY NB & CHAPARRAL WY,38.04064,-121.33185,,,,
3140,4084,DAVIS RD & WHISTLER WY FS NB,,38.048062,-121.332411,,,,
3141,4085,BROOKSIDE RD & MARCH LN FS NB,,37.983993,-121.355167,,,,
3143,4086,ROSEMARIE & CROWN AVE NS EB,ROSEMARIE LN & CROWN AVE,37.986319,-121.321814,,,,
3147,4091,LOUISE AVE & CAMBRIDGE DR FS EB,,37.811751,-121.283405,,,,
3148,4090,LOUISE AVE & CAMBRIDGE DR FS WB,,37.811903,-121.283531,,,,
3153,7823,PACIFIC & YOKUTS DEP NB,PACIFIC AVE & YOKUTS AVE,37.998679,-121.315503,,,,
3155,7826,MT DIABLO AVE & PIXIE WOODS (1 SCH),,37.954943,-121.342523,,,,
3169,4102,HARDING WAY & GOLDEN GATE AVE NS EB,HARDING WY & GOLDEN GATE AVE,37.975043,-121.254537,,,,
3171,4105,SAN JOAQUIN ST & PARK ST FS SB,,37.96012,-121.289042,,,,
3174,4108,KNOLES WY & UOP MAIN ENT,KNOLES WY & UOP MAIN ENTRANCE,37.98041,-121.308419,,,,
3175,4109,MAGNOLIA ST & AURORA ST,,37.965332,-121.282311,,,,
3177,4115,FLORA ST & MADISON AVE FS EB,FLORA ST & MADISON ST,37.960001,-121.295752,,,,
3178,7845,FLORA ST & D ST FS EB,"FLORA ST & ""D"" ST",37.966112,-121.263638,,,,
3179,7847,MALL TRANSFER METRO HOPPER DEP,,37.996486,-121.313248,,,,
3181,4118,LOS MOLINAS & GOYA NS SB,,38.018446,-121.307114,,,,
3188,7848,SUTTER GOULD MEDICAL CENTER,SUTTER GOULD MED CTR,38.022633,-121.347126,,,,
3196,7850,TRACY MULTI-MODAL CENTER,TRACY TRANSIT STATION,37.73456,-121.424294,,,,
3197,7851,EAST & TENTH STREET NS SB,EAST ST & TENTH ST,37.738624,-121.421141,,,,
3204,7856,WILCOX & WATERLOO ARR NS SB,WILCOX & WATERLOO RD,37.988355,-121.244572,,,,
3207,4123,EARHART ST & B ST NW WB,"EARHART ST & ""B"" ST",37.903014,-121.243053,,,,
3215,7901,AIRPORT WAY & 8TH ST ARR FS NB,AIRPORT WY & 8TH ST,37.93168,-121.266894,,,,
3217,7903,AURORA ST & WEBER AVE NS SB,,37.956357,-121.279825,,,,
3218,7904,AURORA ST & CHANNEL ST FS NB,,37.956455,-121.279837,,,,
3219,7905,AIRPORT WAY & SONORA ST FS SB,AIRPORT WY & SONORA ST,37.951415,-121.27308,,,,
3221,7906,AIRPORT WY & SONORA ST FS NB,,37.951478,-121.27308,,,,
3223,7911,"""B"" ST & 9TH ST FS SB",,37.932886,-121.254972,,,,
3226,4145,PACIFIC AVE & WALNUT ST FS NB,,37.968548,-121.298722,,,,
3227,4146,PACIFIC AVE & WALNUT ST FS SB,,37.96886,-121.298849,,,,
3228,4140,8TH ST & ANNE ST NS EB,,37.932145,-121.262392,,,,
3229,4141,8TH ST & SCRIBNER ST FS EB,,37.932734,-121.259785,,,,
3230,4142,'B' ST & GERALD FS SB,"""B"" ST & GERALD ST",37.927523,-121.252778,,,,
3231,4143,'B' ST & RALPH AVE NS SB,"""B"" ST & RALPH AVE",37.922955,-121.250964,,,,
3239,4157,LEVER BLVD & HAWAII ST FS WB,,37.923212,-121.301874,,,,
3240,4158,LEVER BLVD & DONATI CIR FS WB,,37.92338,-121.307077,,,,
3241,4161,HICKOCK DR & PAWNEE WY FS SB,,38.03813,-121.336,,,,
3242,4160,HICKOCK DR & CHAPARRAL WY FS SB,HICKOCK DR & DHAPARRAL WY,38.041156,-121.333818,,,,
3244,4163,PONCE DE LEON AVE & GRAYWOOD NS EB,,38.030099,-121.323512,,,,
3245,4164,PONCE DE LEON  & SANTA MARIA FS EB,,38.030091,-121.322017,,,,
3246,4165,PONCE DE LEON & SANTA PAULA FS EB,,38.030083,-121.319464,,,,
3248,4171,DAVIS RD & GOLDENOAK WY FS SB,DAVID RD & GOLDENOAK W,38.031673,-121.331783,,,,
3254,7916,8TH & PAJARO WY FS EB,8TH ST & PAJARO WY,37.926635,-121.310008,,,,
3257,7919,FILBERT ST & FREMONT ST FS SB,,37.965452,-121.256123,,,,
3258,4068,MAIN ST & SHASTA AVE FS EB,,37.95462,-121.24785,,,,
3259,4067,MAIN ST & DAVID AVE FS WB,,37.954647,-121.246793,,,,
3263,7921,COUNTRY CLUB & RYDE AVE ARR FS WB,COUNTRY CLUB BLVD & RYDE AVE,37.963923,-121.337397,,,,
3266,4129,MARCH LN & FEATHER RIVER FS EB,MARCH LN & FEATHER RIVER DR,37.984204,-121.347501,,,,
3267,7923,MCGAW & ROSE MARIE FS NB,,37.984744,-121.328295,,,,
3269,4176,COUNTRY CLUB & GARDENA AVE NS WB,COUNTRY CLUB BLVD & GARDENA AVE,37.963243,-121.3402,,,,
3270,4177,KIRK AVE & MICHIGAN AVE FS NB,,37.965873,-121.342559,,,,
3271,4178,DOWNING & TURNPIKE NS EB,DOWNING AVE & TURNPIKE RD,37.913198,-121.288203,,,,
3272,4179,DOWNING & MOURFIELD NS WB,DOWNING AVE & MOURFIELD AVE,37.913904,-121.284115,,,,
3276,4184,FILBERT ST & WEBER AVE NS SB,,37.960893,-121.254181,,,,
3277,4185,BIANCHI RD & EBBET PL FS WB,BIANCHI RD & EBBET PASS PL,37.990841,-121.306174,,,,
3278,4186,BIANCHI RD & CLAREMONT AVE NS EB,,37.991279,-121.305611,,,,
3279,7924,FILBERT ST & MAIN ST FS NB,,37.954879,-121.25186,,,,
3282,4120,CHEROKEE RD & F ST FS EB,"CHEROKEE RD & ""F"" ST",37.977898,-121.264502,,,,
3285,4189,MLK BLVD & EL DORADO FS EB,MLK BLVD & EL DORADO ST,37.938903,-121.285976,,,,
3286,4190,MLK BLVD & SUTTER ST FS EB,,37.939574,-121.28207,,,,
3287,4191,DAVIS RD & GOLDENOAK WY FS NB,,38.031717,-121.331772,,,,
3288,4192,DAVIS RD & WAGNER HEIGHTS RD NS SB,,38.0355,-121.331902,,,,
3289,4193,AIRPORT WY @ FAIRGROUNDS ENT NB,AIRPORT WY & FAIRGOUNDS ENT,37.936275,-121.268584,,,,
3290,4194,ALPINE AVE & BONNIE LN NS/EB,,37.978699,-121.304521,,,,
3294,7928,MACARTHUR BLVD & PESCADERO AVE FSNB,,37.761493,-121.414593,,,,
3295,7929,MACARTHUR BLVD & POMBO SQUARE DR,,37.760074,-121.414716,,,,
3296,4195,8TH ST & LEVER BLVD FS/EB,,37.926649,-121.29734,,,,
3297,4196,WATERLOO RD & REPORT AVE EB/FS,,37.98178,-121.254492,,,,
3298,4197,WATERLOO RD & REPORT AVE WB/FS,,37.981762,-121.254549,,,,
3299,4198,MATHEWS RD & WOLFE RD WB/NS,MATHEWS RD & WOLF RD,37.882678,-121.302248,,,,
3300,4199,EAST ST & HIGHLAND AVE SB/NS,EAST ST & HIGHLAND ST,37.741818,-121.42116,,,,
3301,4200,GRANT LINE RD & PARKER AVE FS/WB,,37.754235,-121.429885,,,,
3302,4201,GRANT LINE RD & LINCOLN BLVD FS/WB,,37.754205,-121.443566,,,,
3303,4202,GRANT LINE BLVD & LINCOLN BLVD FSEB,GRANT LINE RD & LINCOLN BLVD,37.754072,-121.44352,,,,
3304,4203,GRANT LINE RD & BESSIE AVE FS/EB,,37.754123,-121.433082,,,,
3305,4204,LEVER BLVD & BOSTON AVE FS NB,,37.92449,-121.29828,,,,
3306,4206,ALPINE AVE & EL DORADO ST FS WB,,37.98003,-121.299258,,,,
3307,4205,OAK ST & EL DORADO ST FS EB,,37.958691,-121.291339,,,,
3310,7932,HAMMER LN & KATHLEEN DR FS EB,,38.020832,-121.296835,,,,
3314,4207,SWAIN RD & EL DORADO ST FS EB,,38.007239,-121.308451,,,,
3315,4208,SWAIN RD & KERMIT LANE FS EB,,38.009483,-121.299369,,,,
3316,4209,WEST LANE & MORADA LN NS NB,,38.03684,-121.294936,,,,
3317,4210,HUTCHINS ST & CENTURY BLVD NS NB,,38.107195,-121.278732,,,,
3318,4211,HUTCHINS ST & CENTURY BLVD FS SB,,38.107338,-121.278916,,,,
3319,4212,WEST LANE & MORADA LN NS SB,,38.036866,-121.29512,,,,
3321,4221,WILLIAM MOSS BLVD & ZEALLY LN FS EB,WILLIAM MODD BLVD & ZEALLY LN,37.908065,-121.315287,,,,
3322,4222,WILLIAM MOSS BL & SACHETTI CIR MBEB,WILLIAM MOSS BLVD & SACHETTI CIR,37.905783,-121.310152,,,,
3323,4223,WILLIAM MOSS BL & VIOLET CHENG NSEB,WILLIAM MOSS BLVD & VIOLET CHENG,37.904875,-121.306294,,,,
3324,4224,FREMONT ST & VAN BUREN ST FS EB,,37.956628,-121.297646,,,,
3325,4213,SWAIN RD & KERMIT LN NS WB,,38.009581,-121.29945,,,,
3326,4214,TAM O'SHANTER DR & SWAIN RD NS SB,,38.010412,-121.296219,,,,
3327,4215,TAM O'SHANTER DR & SWAIN RD FS NB,,38.010563,-121.29622,,,,
3328,4225,SWAIN RD & CRESENDA AVE NS WB,,38.006756,-121.310428,,,,
3330,7936,COLLEGE DR @ DELTA COLLEGE MTN HSE,,37.753475,-121.556771,,,,
3340,4230,HOLMAN RD & ETCHEVERY FS SB,,38.004458,-121.27183,,,,
3343,7950,MANTECA TRANSIT CENTER ARR,,37.795886,-121.21594,,,,
3345,7952,COLONY RD & BRADY LN FS SB,,37.753955,-121.136978,,,,
3346,4231,GROUSE RUN DR & MARCH LN FS NB,,37.987349,-121.329229,,,,
3347,4232,GROUSE RUN DR & COVEY CRK CIR FSNB,,37.993699,-121.333903,,,,
3348,4233,GROUSE RUN DR & QUAIL LAKES DR FSSB,,37.995455,-121.33533,,,,
3349,4234,GROUSE RUN DR & MARCH LN NS SB,,37.987313,-121.329229,,,,
3350,4235,OREGON AVE & OXFORD WY NB NS,,37.963927,-121.34366,,,,
3351,4236,8TH ST & D ST EB FS,,37.934893,-121.251561,,,,
3352,4237,INSPIRATION DR & RIETI LN FS EB,,38.031341,-121.267145,,,,
3353,4238,MARANATHA DR & KIRSTEN DR FS NB,,38.028067,-121.264131,,,,
3354,4239,MARANATHA DR & BERGAMO CIR FS SB,,38.028674,-121.264166,,,,
3355,4240,WILMA AVE & HUGHES LN FS SB,,37.742274,-121.135507,,,,
3356,4241,MAIN ST & NIKKEL LN FS WB,,37.739565,-121.138765,,,,
3357,4242,JACK TONE RD & CANAL BLVD FS EB,,37.746902,-121.142305,,,,
3358,4245,MDDOUGALD BLVD & ISHI GOTO ST FS NB,,37.909706,-121.297134,,,,
3359,4244,MCDOUGALD BLVD & BESS PL FS SB,,37.904844,-121.295467,,,,
3360,4243,MCDOUGALD BLVD & ISHI GOTO ST FS SB,,37.909679,-121.297134,,,,
3361,4247,8TH ST & D ST NS WB,,37.934902,-121.251584,,,,
3362,4246,COLONY RD & GOODWIN DR FS EB,,37.753944,-121.134503,,,,
3363,4248,MISSION RD & BRISTOL AVE,,37.969543,-121.324119,,,,
3366,4249,BRYANT DR & LOTT ST FS WB,,38.02697,-121.265799,,,,
3367,4251,ROYAL OAK DR & ROYAL PARK DR FS WB,,38.03684,-121.330443,,,,
3368,4252,ROYAL OAK DR & LOWER SAC RD FS WB,,38.03688,-121.322829,,,,
3369,4250,FILBERT ST & MINER AVE FS SB,E MINER AVE,37.962856,-121.254997,,,,
3370,7953,EAST ST & GRANT LINE RD NS NB,,37.754096,-121.4212,,,,
